{"version": 0.6, "generator": "Overpass API 0.7.62.4 2390de5a", "osm3s": {"timestamp_osm_base": "2024-11-26T07:15:13Z", "copyright": "The data included in this document is from www.openstreetmap.org. The data is made available under ODbL."}, "elements": [{"type": "node", "id": 26808561, "lat": 40.4256477, "lon": -3.7122038, "tags": {"addr:city": "Madrid", "addr:housenumber": "2", "addr:postcode": "28015", "addr:street": "Plaza de Cristino Martos", "amenity": "bar", "email": "hola@murcafe.com", "name": "M\u00fcr Caf\u00e9", "phone": "+34 91 139 98 09", "website": "http://murcafe.es/", "wheelchair": "no"}}, {"type": "node", "id": 43274445, "lat": 40.4874732, "lon": -3.699712, "tags": {"amenity": "bar", "name": "Cadillac Solitario"}}, {"type": "node", "id": 47216276, "lat": 40.4130638, "lon": -3.7129344, "tags": {"amenity": "bar", "name": "Bar Barocco"}}, {"type": "node", "id": 167301964, "lat": 40.4116383, "lon": -3.6979403, "tags": {"amenity": "bar"}}, {"type": "node", "id": 167302111, "lat": 40.4124453, "lon": -3.6961583, "tags": {"amenity": "bar", "name": "Fever", "wheelchair": "no"}}, {"type": "node", "id": 167302439, "lat": 40.4128038, "lon": -3.695685, "tags": {"amenity": "bar", "name": "La Hidria"}}, {"type": "node", "id": 167302513, "lat": 40.4129838, "lon": -3.6956873, "tags": {"amenity": "bar", "name": "La Esquina"}}, {"type": "node", "id": 167302636, "lat": 40.412803, "lon": -3.6946194}, {"type": "node", "id": 167302640, "lat": 40.413178, "lon": -3.6957012, "tags": {"addr:city": "Madrid", "addr:country": "ES", "addr:housenumber": "69", "addr:postcode": "28014", "addr:street": "Calle de las Huertas", "air_conditioning": "yes", "amenity": "bar", "name": "El Diario"}}, {"type": "node", "id": 167302641, "lat": 40.4136254, "lon": -3.6956999, "tags": {"addr:city": "Madrid", "addr:housenumber": "2", "addr:postcode": "28014", "addr:street": "Calle de Jes\u00fas", "amenity": "bar", "contact:facebook": "https://www.facebook.com/pages/Cervecer%C3%ADa-La-F%C3%A1brica/135300993192900", "contact:phone": "+34 913 69 06 71", "name": "La F\u00e1brica"}}, {"type": "node", "id": 167302645, "lat": 40.4135119, "lon": -3.6957073, "tags": {"amenity": "bar", "name": "Los Gatos", "wikidata": "Q57446751"}}, {"type": "node", "id": 167302652, "lat": 40.4133633, "lon": -3.695701, "tags": {"amenity": "bar", "name": "La Ancho\u00edta"}}, {"type": "node", "id": 167302693, "lat": 40.4141167, "lon": -3.6957942, "tags": {"addr:city": "Madrid", "addr:housenumber": "7", "addr:postcode": "28014", "addr:street": "Plaza de Jes\u00fas", "amenity": "bar", "contact:phone": "+34 91 389 62 38", "contact:website": "http://www.tabernadeladaniela.com/nuestras-danielas/la-daniela-medinaceli/", "name": "Taberna de la Daniela"}}, {"type": "node", "id": 178820898, "lat": 40.4154807, "lon": -3.7111249, "tags": {"addr:city": "Madrid", "addr:housenumber": "74", "addr:postcode": "28013", "addr:street": "Calle Mayor", "amenity": "bar", "name": "Ssambar"}}, {"type": "node", "id": 178821046, "lat": 40.416073, "lon": -3.7085285, "tags": {"addr:city": "Madrid", "addr:housenumber": "42", "addr:postcode": "28013", "addr:street": "Calle Mayor", "amenity": "bar", "name": "Velicia"}}, {"type": "node", "id": 184049106, "lat": 40.4188918, "lon": -3.7086559, "tags": {"addr:city": "Madrid", "addr:housenumber": "7", "addr:postcode": "28013", "addr:street": "Calle de Ca\u00f1os del Peral", "amenity": "bar", "name": "Discoteca Olimpia"}}, {"type": "node", "id": 184049359, "lat": 40.4191018, "lon": -3.7039069, "tags": {"amenity": "bar"}}, {"type": "node", "id": 266390246, "lat": 40.4231951, "lon": -3.6982486, "tags": {"amenity": "bar", "name": "El Buo", "old_name": "BAires", "wheelchair": "no"}}, {"type": "node", "id": 324407542, "lat": 40.4406907, "lon": -3.6424732, "tags": {"amenity": "bar", "check_date": "2023-05-31", "name": "Cervecer\u00eda Sapama", "wheelchair": "no"}}, {"type": "node", "id": 324407545, "lat": 40.4395443, "lon": -3.6426533, "tags": {"amenity": "bar", "name": "QOF"}}, {"type": "node", "id": 324407547, "lat": 40.440176, "lon": -3.6444939, "tags": {"amenity": "bar", "indoor_seating": "yes", "name": "Chicas Club", "outdoor_seating": "no"}}, {"type": "node", "id": 324407675, "lat": 40.4367695, "lon": -3.6437704, "tags": {"amenity": "bar", "name": "La Guajira Puga"}}, {"type": "node", "id": 324407777, "lat": 40.43777, "lon": -3.6394243, "tags": {"amenity": "bar"}}, {"type": "node", "id": 324407779, "lat": 40.4378423, "lon": -3.6394847, "tags": {"amenity": "bar", "name": "Bus"}}, {"type": "node", "id": 324407780, "lat": 40.4379561, "lon": -3.6395911, "tags": {"amenity": "bar", "name": "La Marina"}}, {"type": "node", "id": 324407782, "lat": 40.4379692, "lon": -3.6401759, "tags": {"amenity": "bar", "name": "Altagracia"}}, {"type": "node", "id": 353133732, "lat": 40.5044943, "lon": -3.7034424, "tags": {"amenity": "bar", "name": "Maza"}}, {"type": "node", "id": 414805345, "lat": 40.4677937, "lon": -3.7948595, "tags": {"amenity": "bar", "name": "Ito Ita"}}, {"type": "node", "id": 530601815, "lat": 40.3642449, "lon": -3.5889171, "tags": {"amenity": "bar", "name": "Cervecer\u00eda Sureste", "opening_hours": "07:00-01:00", "smoking": "outside"}}, {"type": "node", "id": 546323709, "lat": 40.4035341, "lon": -3.690538, "tags": {"addr:city": "Madrid", "addr:housenumber": "7", "addr:postcode": "28045", "addr:street": "Calle del General Lacy", "amenity": "bar", "name": "El Rosario"}}, {"type": "node", "id": 574680826, "lat": 40.4512128, "lon": -3.6770817, "tags": {"amenity": "bar", "check_date": "2023-09-27", "name": "Revoltosa", "outdoor_seating": "yes"}}, {"type": "node", "id": 588396120, "lat": 40.4697022, "lon": -3.586124, "tags": {"addr:housenumber": "31", "addr:street": "Paseo del Zurr\u00f3n", "amenity": "bar", "check_date": "2023-06-20", "name": "Egunon"}}, {"type": "node", "id": 588396124, "lat": 40.4697057, "lon": -3.5872112, "tags": {"addr:housenumber": "9", "addr:street": "Paseo del Zurr\u00f3n", "amenity": "bar", "name": "Shyk"}}, {"type": "node", "id": 622204625, "lat": 40.4143568, "lon": -3.7011949, "tags": {"amenity": "bar", "cuisine": "hawaiian", "name": "Bar Hawaiano Mauna Loa"}}, {"type": "node", "id": 622204643, "lat": 40.4144723, "lon": -3.7002686, "tags": {"addr:housenumber": "6", "addr:street": "Plaza de Santa Ana", "amenity": "bar", "check_date": "2024-03-30", "name": "Tapas"}}, {"type": "node", "id": 623071234, "lat": 40.4251204, "lon": -3.714055, "tags": {"amenity": "bar", "name": "Cervecer\u00eda Rodr\u00edguez", "wheelchair": "no"}}, {"type": "node", "id": 624783051, "lat": 40.4043735, "lon": -3.7502913, "tags": {"amenity": "bar", "name": "Casarrubios"}}, {"type": "node", "id": 674492243, "lat": 40.4264722, "lon": -3.706712, "tags": {"addr:city": "Madrid", "addr:housenumber": "66", "addr:postcode": "28015", "addr:street": "Calle de San Bernardo", "amenity": "bar", "name": "Tempo II", "phone": "+34 91 531 37 68", "website": "http://www.pubtempo2.com/", "wheelchair": "no"}}, {"type": "node", "id": 747743951, "lat": 40.4762852, "lon": -3.6402638, "tags": {"amenity": "bar", "name": "cuesta"}}, {"type": "node", "id": 750497101, "lat": 40.4266065, "lon": -3.7037757, "tags": {"addr:city": "Madrid", "addr:housenumber": "9", "addr:postcode": "28004", "addr:street": "Plaza del Dos de Mayo", "amenity": "bar", "check_date": "2023-09-24", "contact:phone": "+34 915 311 317", "drink:club-mate": "served", "name": "Malabar"}}, {"type": "node", "id": 810259232, "lat": 40.4462747, "lon": -3.6670337, "tags": {"amenity": "bar", "name": "L'Escampier"}}, {"type": "node", "id": 811416346, "lat": 40.4069709, "lon": -3.6135606, "tags": {"amenity": "bar", "check_date": "2024-02-28", "name": "La Perla"}}, {"type": "node", "id": 831245136, "lat": 40.4038625, "lon": -3.6909403, "tags": {"addr:city": "Madrid", "addr:country": "ES", "addr:housenumber": "14", "addr:postcode": "28045", "addr:street": "Calle del General Lacy", "amenity": "bar", "check_date": "2024-09-18", "name": "El Rinc\u00f3n de V\u00edctor"}}, {"type": "node", "id": 831245146, "lat": 40.4037318, "lon": -3.6909081, "tags": {"addr:city": "Madrid", "addr:housenumber": "14", "addr:postcode": "28045", "addr:street": "Calle del General Lacy", "amenity": "bar", "name": "Bodegas Rosell", "phone": "+34914678458", "website": "http://bodegasrosell.es/", "wikidata": "Q41958101", "wikipedia": "es:Bodegas Rosell"}}, {"type": "node", "id": 860341803, "lat": 40.4024256, "lon": -3.7387495, "tags": {"addr:housenumber": "3", "addr:postcode": "28047", "addr:street": "Calle Vi\u00f1egra", "amenity": "bar", "indoor_seating": "yes", "name": "La Ca\u00f1ola Parrilla Tapas & Pintxos", "opening_hours": "Su, Tu-Th 11:00-00:00; Fr-Sa 11:00-00:30", "outdoor_seating": "yes", "phone": "+34 605 46 81 94", "source": "survey"}}, {"type": "node", "id": 860341837, "lat": 40.4024487, "lon": -3.7386053, "tags": {"addr:housenumber": "48", "addr:postcode": "28047", "addr:street": "Calle del Concejal Francisco Jos\u00e9 Jim\u00e9nez Mart\u00edn", "amenity": "bar", "cuisine": "tapas", "name": "Marem", "name:en": "Unica 4U", "name:es": "Unica 4U", "opening_hours": "Tu-Sa 12:00-00:30; Su 12:00-00:00", "phone": "+34 674 07 40 16", "source": "survey"}}, {"type": "node", "id": 967654538, "lat": 40.3686309, "lon": -3.7588184, "tags": {"amenity": "bar", "check_date": "2024-07-25", "name": "Bar Villanueva"}}, {"type": "node", "id": 977356078, "lat": 40.3992814, "lon": -3.6852496, "tags": {"amenity": "bar"}}, {"type": "node", "id": 977358919, "lat": 40.3994543, "lon": -3.6857194, "tags": {"amenity": "bar", "payment:lightning": "yes"}}, {"type": "node", "id": 981712992, "lat": 40.4398176, "lon": -3.6759909, "tags": {"amenity": "bar", "name": "Antiguo bar La flor"}}, {"type": "node", "id": 1008451794, "lat": 40.3660376, "lon": -3.6019428, "tags": {"amenity": "bar", "name": "El Gusto es Nuestro"}}, {"type": "node", "id": 1010972136, "lat": 40.411457, "lon": -3.6990693, "tags": {"amenity": "bar", "name": "M\u00e1s coraz\u00f3n", "recycling:cans": "yes", "recycling:glass": "yes", "recycling:paper": "yes"}}, {"type": "node", "id": 1012470349, "lat": 40.422331, "lon": -3.7041426, "tags": {"addr:city": "Madrid", "addr:country": "ES", "addr:housenumber": "21", "addr:postcode": "28004", "addr:street": "Corredera Baja de San Pablo", "amenity": "bar", "email": "circodelastapas@gmail.com", "name": "Circo de las Tapas", "phone": "+34 911886014", "website": "https://www.circodelastapas.com/"}}, {"type": "node", "id": 1108148051, "lat": 40.4057397, "lon": -3.705086}, {"type": "node", "id": 1108148187, "lat": 40.4057864, "lon": -3.7050706}, {"type": "node", "id": 1108148284, "lat": 40.4057989, "lon": -3.705135}, {"type": "node", "id": 1108148400, "lat": 40.4057522, "lon": -3.7051504}, {"type": "node", "id": 1108148451, "lat": 40.4057776, "lon": -3.7050237}, {"type": "node", "id": 1108148629, "lat": 40.4057612, "lon": -3.7051984}, {"type": "node", "id": 1108148762, "lat": 40.4058151, "lon": -3.7050613}, {"type": "node", "id": 1108148888, "lat": 40.4057262, "lon": -3.7051589}, {"type": "node", "id": 1108148907, "lat": 40.4058272, "lon": -3.7051259}, {"type": "node", "id": 1108148927, "lat": 40.4057141, "lon": -3.7050943}, {"type": "node", "id": 1108149214, "lat": 40.4057309, "lon": -3.7050388}, {"type": "node", "id": 1108149337, "lat": 40.405808, "lon": -3.7051833}, {"type": "node", "id": 1119744698, "lat": 40.4264738, "lon": -3.7037795, "tags": {"addr:city": "Madrid", "addr:housenumber": "9", "addr:postcode": "28004", "addr:street": "Calle de San Andr\u00e9s", "amenity": "bar", "check_date": "2023-09-24", "name": "La Taberna", "toilets:wheelchair": "no", "wheelchair": "no"}}, {"type": "node", "id": 1128664828, "lat": 40.4291805, "lon": -3.6937519, "tags": {"addr:housenumber": "22", "addr:street": "Calle de Almagro", "amenity": "bar", "name": "Whitby", "name:es": "Whitby", "phone": "+34 913197088", "website": "https://www.whitby.es/"}}, {"type": "node", "id": 1178499022, "lat": 40.4113626, "lon": -3.7110878, "tags": {"amenity": "bar", "name": "Juana la Loca"}}, {"type": "node", "id": 1178501995, "lat": 40.4083754, "lon": -3.7030814, "tags": {"amenity": "bar", "name": "Re Tapas", "survey:date": "2022-07-23"}}, {"type": "node", "id": 1191046039, "lat": 40.4117813, "lon": -3.7053261, "tags": {"amenity": "bar", "name": "Mariano"}}, {"type": "node", "id": 1216191015, "lat": 40.4530908, "lon": -3.615177, "tags": {"amenity": "bar", "name": "Visconti"}}, {"type": "node", "id": 1224767488, "lat": 40.3971957, "lon": -3.6553964}, {"type": "node", "id": 1252641346, "lat": 40.4733208, "lon": -3.6508642, "tags": {"amenity": "bar", "name": "Bar la Esquina Latina"}}, {"type": "node", "id": 1272945462, "lat": 40.4452379, "lon": -3.6983686, "tags": {"addr:housenumber": "29", "addr:street": "Calle Maudes", "amenity": "bar", "internet_access": "wlan", "internet_access:fee": "no", "name": "Pin Up"}}, {"type": "node", "id": 1299593884, "lat": 40.4444547, "lon": -3.5948038, "tags": {"amenity": "bar", "name": "Torres"}}, {"type": "node", "id": 1313062261, "lat": 40.4437315, "lon": -3.5758806, "tags": {"amenity": "bar", "smoking": "no"}}, {"type": "node", "id": 1319826818, "lat": 40.4238711, "lon": -3.6926127, "tags": {"addr:city": "Madrid", "addr:postcode": "28004", "addr:street": "Calle del Marqu\u00e9s de la Ensenada", "amenity": "bar", "name": "Hasta los Andares", "old_name": "El Birrete", "smoking": "no"}}, {"type": "node", "id": 1327625402, "lat": 40.4109398, "lon": -3.7077053, "tags": {"addr:housenumber": "6", "addr:street": "Calle de las Maldonadas", "amenity": "bar", "check_date": "2024-03-15", "name": "El S\u00f3tano", "old_name": "Moda Li Da"}}, {"type": "node", "id": 1329861145, "lat": 40.4114997, "lon": -3.709931, "tags": {"amenity": "bar", "name": "La extreme\u00f1a"}}, {"type": "node", "id": 1332770270, "lat": 40.4260706, "lon": -3.6956282, "tags": {"addr:city": "Madrid", "addr:housenumber": "12", "addr:postcode": "28004", "addr:street": "Calle de Campoamor", "amenity": "bar", "contact:website": "http://www.grupocherokee.es/", "name": "Cherokee", "old_name": "Ma\u00efbar"}}, {"type": "node", "id": 1364704731, "lat": 40.4347019, "lon": -3.681434, "tags": {"addr:city": "Madrid", "addr:street": "Calle de Diego de Le\u00f3n", "amenity": "bar", "name": "Bar Escalera del 34"}}, {"type": "node", "id": 1366075262, "lat": 40.4359258, "lon": -3.6805101, "tags": {"amenity": "bar", "name": "Orgaz"}}, {"type": "node", "id": 1366075269, "lat": 40.4349724, "lon": -3.6805545, "tags": {"addr:city": "Madrid", "addr:country": "ES", "addr:housenumber": "107", "addr:postcode": "28006", "addr:street": "Calle de Castell\u00f3", "amenity": "bar", "contact:phone": "+34 915623106", "name": "Bar Rub\u00ed"}}, {"type": "node", "id": 1381733962, "lat": 40.3943622, "lon": -3.7463914, "tags": {"amenity": "bar", "name": "Kiosco"}}, {"type": "node", "id": 1388259232, "lat": 40.4232031, "lon": -3.7047303, "tags": {"addr:housenumber": "7", "addr:postcode": "28004", "addr:street": "Calle del Pez", "amenity": "bar", "contact:website": "https://peztortilla.com", "name": "Cara B", "old_name": "Zombie Bar"}}, {"type": "node", "id": 1428141699, "lat": 40.4157993, "lon": -3.6995741, "tags": {"addr:city": "Madrid", "addr:country": "ES", "addr:housenumber": "7", "addr:postcode": "28014", "addr:street": "Calle de Echegaray", "amenity": "bar", "cuisine": "tapas", "description": "Mo-Su 12:30-15:30,19:30+", "name": "La Venencia", "opening_hours": "Mo-Su 12:30-15:30,19:30+"}}, {"type": "node", "id": 1437313174, "lat": 40.3858765, "lon": -3.7443323, "tags": {"amenity": "bar"}}, {"type": "node", "id": 1457528577, "lat": 40.4077371, "lon": -3.6963231, "tags": {"addr:city": "Madrid", "addr:housenumber": "39", "addr:postcode": "28012", "addr:street": "Calle de Argumosa", "amenity": "bar", "name": "Orishas", "survey:date": "2023-11-01"}}, {"type": "node", "id": 1459085921, "lat": 40.3989605, "lon": -3.6018376, "tags": {"amenity": "bar", "name": "Delphinus"}}, {"type": "node", "id": 1483924474, "lat": 40.4326692, "lon": -3.6872715, "tags": {"addr:city": "Madrid", "addr:housenumber": "63", "addr:postcode": "28006", "addr:street": "Calle de Serrano", "amenity": "bar", "name": "Callej\u00f3n de Serrano", "phone": "+34 918310489", "website": "http://www.elcallejondeserrano.com/"}}, {"type": "node", "id": 1514865258, "lat": 40.4101824, "lon": -3.7390949, "tags": {"amenity": "bar", "name": "Bar El Paso"}}, {"type": "node", "id": 1517405726, "lat": 40.4163668, "lon": -3.7015661, "tags": {"amenity": "bar", "name": "La Fontana de Oro"}}, {"type": "node", "id": 1517405727, "lat": 40.4088976, "lon": -3.6990671, "tags": {"amenity": "bar", "name": "Il Morto Che Parla"}}, {"type": "node", "id": 1517405731, "lat": 40.4256127, "lon": -3.7027497, "tags": {"addr:city": "Madrid", "addr:housenumber": "17", "addr:postcode": "28004", "addr:street": "Calle de San Vicente Ferrer", "amenity": "bar", "contact:website": "http://www.maderfaker.com/es/club.html", "name": "Mader Faker", "note": "This is the actual name of this funky bar/pub/club"}}, {"type": "node", "id": 1517405735, "lat": 40.4131491, "lon": -3.6960498, "tags": {"amenity": "bar", "cuisine": "irish", "name": "The Harp", "old_name": "The Variety"}}, {"type": "node", "id": 1535886938, "lat": 40.4300911, "lon": -3.697607, "tags": {"addr:housenumber": "24", "addr:street": "Calle de Covarrubias", "alt_name": "Vaquita del Honky", "amenity": "bar", "name": "Honky Tonk"}}, {"type": "node", "id": 1541956963, "lat": 40.4482711, "lon": -3.6899093, "tags": {"amenity": "bar", "name": "Habana 5 Bar"}}, {"type": "node", "id": 1553139954, "lat": 40.4062755, "lon": -3.7492262, "tags": {"amenity": "bar", "name": "Langa"}}, {"type": "node", "id": 1553139955, "lat": 40.4078039, "lon": -3.7437234, "tags": {"amenity": "bar", "name": "Las Cosas de Dos"}}, {"type": "node", "id": 1556708387, "lat": 40.4110987, "lon": -3.7027101, "tags": {"amenity": "bar", "name": "Marimba", "old_name": "Taque?"}}, {"type": "node", "id": 1556708422, "lat": 40.4096781, "lon": -3.7077827, "tags": {"addr:city": "Madrid", "addr:housenumber": "14", "addr:postcode": "28005", "addr:street": "Calle de las Amazonas", "amenity": "bar", "name": "Santurce", "wheelchair": "limited", "wheelchair:description": "Planta lisa, escalon 7 cm"}}, {"type": "node", "id": 1557975353, "lat": 40.3746067, "lon": -3.6198377, "tags": {"amenity": "bar", "name": "Alegr\u00eda"}}, {"type": "node", "id": 1557975366, "lat": 40.3746007, "lon": -3.6201543, "tags": {"amenity": "bar", "name": "Sport"}}, {"type": "node", "id": 1557975374, "lat": 40.3759226, "lon": -3.6204707, "tags": {"amenity": "bar", "name": "San Juli\u00e1n"}}, {"type": "node", "id": 1572572826, "lat": 40.4088323, "lon": -3.6989418, "tags": {"amenity": "bar", "name": "Bar San Lorenzo", "wheelchair": "limited"}}, {"type": "node", "id": 1595614343, "lat": 40.394147, "lon": -3.7577841, "tags": {"amenity": "bar", "name": "Bar Serena"}}, {"type": "node", "id": 1595614344, "lat": 40.3858017, "lon": -3.7592614, "tags": {"amenity": "bar", "name": "Bar de F\u00e9nix"}}, {"type": "node", "id": 1595614362, "lat": 40.3859498, "lon": -3.7632877, "tags": {"amenity": "bar", "indoor_seating": "yes", "layer": "1", "outdoor_seating": "no"}}, {"type": "node", "id": 1618390528, "lat": 40.3985779, "lon": -3.7596143, "tags": {"amenity": "bar", "name": "Eiffel", "phone": "+34915183714"}}, {"type": "node", "id": 1634750461, "lat": 40.4120855, "lon": -3.7119224, "tags": {"addr:city": "Madrid", "addr:housenumber": "4", "addr:postcode": "28005", "addr:street": "Calle de los Mancebos", "amenity": "bar", "name": "Off de La Latina"}}, {"type": "node", "id": 1634750481, "lat": 40.4115497, "lon": -3.709992, "tags": {"addr:city": "Madrid", "addr:housenumber": "10", "addr:postcode": "28005", "addr:street": "Plaza de la Cebada", "amenity": "bar", "contact:facebook": "https://www.facebook.com/pages/Taberna-La-Buha/428129333969165", "name": "Taberna La Buha"}}, {"type": "node", "id": 1645108307, "lat": 40.4125509, "lon": -3.7032669, "tags": {"amenity": "bar", "name": "C\u00f3mete el Mundo", "old_name": "La Tapa del Mundo"}}, {"type": "node", "id": 1654251584, "lat": 40.4452324, "lon": -3.6977731, "tags": {"amenity": "bar", "name": "Madrid-Dakar"}}, {"type": "node", "id": 1673713704, "lat": 40.3970697, "lon": -3.7684256, "tags": {"amenity": "bar", "name": "Chiquit\u00edn"}}, {"type": "node", "id": 1675771405, "lat": 40.4108615, "lon": -3.7123661, "tags": {"addr:postcode": "28005", "addr:street": "Calle de las Aguas", "amenity": "bar", "check_date": "2024-09-28", "name": "Taberna Almer\u00eda", "payment:cash": "yes", "payment:credit_cards": "yes", "payment:debit_cards": "yes"}}, {"type": "node", "id": 1706354917, "lat": 40.412932, "lon": -3.719545, "tags": {"addr:postcode": "28005", "addr:street": "Calle de Juan Duque", "amenity": "bar", "name": "O'Breogan", "opening_hours": "Su-Th 10:00-01:00; Fr,Sa 10:00-02:30", "wifi": "no"}}, {"type": "node", "id": 1731420098, "lat": 40.4967486, "lon": -3.6901176, "tags": {"amenity": "bar", "name": "Bar Hermoso"}}, {"type": "node", "id": 1738786261, "lat": 40.4223805, "lon": -3.6999707, "tags": {"addr:city": "Madrid", "addr:postcode": "28004", "addr:street": "Calle de P\u00e9rez Gald\u00f3s", "addr:subdistrict": "Justicia", "amenity": "bar", "contact:facebook": "https://es-es.facebook.com/pages/Cafeteria-Hawaii/235272912205", "name": "Bar Hawaii", "phone": "+34 915 23 14 08"}}, {"type": "node", "id": 1738790883, "lat": 40.4426945, "lon": -3.7018821, "tags": {"amenity": "bar", "name": "Huete", "opening_hours": "Mo-Su 08:00-23:00"}}, {"type": "node", "id": 1740065300, "lat": 40.4224648, "lon": -3.6775513, "tags": {"amenity": "bar", "name": "Beef", "wheelchair": "limited"}}, {"type": "node", "id": 1751751626, "lat": 40.4142594, "lon": -3.6958188, "tags": {"amenity": "bar", "changing_table": "no", "name": "Cervantes", "outdoor_seating": "yes", "toilets": "yes", "toilets:access": "customers", "toilets:wheelchair": "yes", "wheelchair": "yes"}}, {"type": "node", "id": 1763008170, "lat": 40.3931717, "lon": -3.7516088, "tags": {"amenity": "bar", "name": "Bodega To\u00f1\u00edn", "old_name": "To\u00f1in"}}, {"type": "node", "id": 1830078492, "lat": 40.4281641, "lon": -3.6946791, "tags": {"amenity": "bar", "name": "El Santo"}}, {"type": "node", "id": 1889602596, "lat": 40.4152479, "lon": -3.6737306, "tags": {"amenity": "bar"}}, {"type": "node", "id": 1890102330, "lat": 40.4152551, "lon": -3.673572, "tags": {"amenity": "bar"}}, {"type": "node", "id": 1897074581, "lat": 40.3726098, "lon": -3.6209503, "tags": {"amenity": "bar", "name": "Los Chicos"}}, {"type": "node", "id": 1897077041, "lat": 40.3734664, "lon": -3.622616, "tags": {"amenity": "bar", "name": "Bar Canalejas"}}, {"type": "node", "id": 1922036891, "lat": 40.4272704, "lon": -3.6660966, "tags": {"amenity": "bar", "check_date": "2023-08-02", "name": "Bel Canto"}}, {"type": "node", "id": 1923626616, "lat": 40.4279774, "lon": -3.7003554, "tags": {"addr:city": "Madrid", "addr:housenumber": "15", "addr:postcode": "28004", "addr:street": "Calle de Larra", "amenity": "bar", "contact:facebook": "https://www.facebook.com/people/Lovely-Rita-Rock-Bar/100086965325237/", "contact:phone": "+34 616 15 05 67", "name": "Lovely Rita"}}, {"type": "node", "id": 1925004172, "lat": 40.3854418, "lon": -3.715503, "tags": {"amenity": "bar", "name": "4 Faroles"}}, {"type": "node", "id": 1925005348, "lat": 40.3855707, "lon": -3.7152876, "tags": {"amenity": "bar", "name": "La bodega"}}, {"type": "node", "id": 1925010607, "lat": 40.3855586, "lon": -3.7147683, "tags": {"amenity": "bar", "name": "Bar Justi"}}, {"type": "node", "id": 1925035254, "lat": 40.3854676, "lon": -3.7143645, "tags": {"amenity": "bar", "name": "Lagartijo"}}, {"type": "node", "id": 1925036099, "lat": 40.3854617, "lon": -3.7138743, "tags": {"amenity": "bar", "name": "Los Cortitos"}}, {"type": "node", "id": 1927659378, "lat": 40.468705, "lon": -3.7229892, "tags": {"amenity": "bar", "name": "Los olmos"}}, {"type": "node", "id": 1927659402, "lat": 40.4703382, "lon": -3.722748, "tags": {"addr:city": "Madrid", "addr:housenumber": "54", "addr:postcode": "28035", "addr:street": "Avenida Juan Andr\u00e9s", "amenity": "bar", "name": "Bar Villamadrid"}}, {"type": "node", "id": 1930221237, "lat": 40.4660446, "lon": -3.7206816, "tags": {"addr:housenumber": "6", "addr:postcode": "28035", "addr:street": "Calle San Gerardo", "amenity": "bar", "name": "El Bodeg\u00f3n"}}, {"type": "node", "id": 1930221241, "lat": 40.4660127, "lon": -3.7205262, "tags": {"addr:housenumber": "6", "addr:postcode": "28035", "addr:street": "Calle San Gerardo", "amenity": "bar", "name": "El Rinc\u00f3n"}}, {"type": "node", "id": 1936429703, "lat": 40.4122036, "lon": -3.7270383, "tags": {"addr:housenumber": "16", "addr:postcode": "28011", "addr:street": "Calle de Caramuel", "amenity": "bar", "name": "La esquina de Eusebio", "smoking": "no"}}, {"type": "node", "id": 1947229204, "lat": 40.4650762, "lon": -3.7214633, "tags": {"amenity": "bar", "name": "Bar Marpil"}}, {"type": "node", "id": 1947229207, "lat": 40.4671891, "lon": -3.7218756, "tags": {"amenity": "bar", "name": "Bar Matins"}}, {"type": "node", "id": 1947229209, "lat": 40.4694307, "lon": -3.7215079, "tags": {"amenity": "bar", "name": "Bar Maype"}}, {"type": "node", "id": 1956394142, "lat": 40.4207921, "lon": -3.7041564, "tags": {"addr:housenumber": "3", "addr:street": "Traves\u00eda del Horno de la Mata", "amenity": "bar", "internet_access": "wlan", "internet_access:fee": "no", "name": "El chiringuito"}}, {"type": "node", "id": 1958218210, "lat": 40.467077, "lon": -3.7241329, "tags": {"amenity": "bar", "name": "Bar El Piropo"}}, {"type": "node", "id": 1958218215, "lat": 40.4660934, "lon": -3.7190796, "tags": {"addr:housenumber": "14", "addr:street": "Calle de Antonio Machado", "amenity": "bar", "name": "Bar El Plane"}}, {"type": "node", "id": 1958218228, "lat": 40.4673212, "lon": -3.7172837, "tags": {"amenity": "bar", "name": "Bar El Gamo"}}, {"type": "node", "id": 1991780505, "lat": 40.3880427, "lon": -3.7655914, "tags": {"amenity": "bar", "name": "Chic Pepe's"}}, {"type": "node", "id": 1992864662, "lat": 40.4436664, "lon": -3.7142092, "tags": {"amenity": "bar", "name": "Trujal", "toilets:wheelchair": "no", "wheelchair": "limited"}}, {"type": "node", "id": 1992865015, "lat": 40.4434665, "lon": -3.7142437, "tags": {"amenity": "bar"}}, {"type": "node", "id": 2004749645, "lat": 40.3940213, "lon": -3.7569378, "tags": {"amenity": "bar", "name": "Bodega"}}, {"type": "node", "id": 2043171006, "lat": 40.4304023, "lon": -3.7165205, "tags": {"amenity": "bar", "designation": "Bar", "name": "Los Bocadillos"}}, {"type": "node", "id": 2068640060, "lat": 40.4010055, "lon": -3.7505551, "tags": {"amenity": "bar", "name": "El Pintxito"}}, {"type": "node", "id": 2072687163, "lat": 40.4262987, "lon": -3.6966342, "tags": {"addr:city": "Madrid", "addr:housenumber": "2", "addr:postcode": "28004", "addr:street": "Calle de Santa Teresa", "addr:subdistrict": "Justicia", "amenity": "bar", "name": "Bulevar", "opening_hours": "Mo-Su 10:00-24:00", "source": "survey", "website": "http://www.bulevarmadridnocrisis.com"}}, {"type": "node", "id": 2077053458, "lat": 40.4121087, "lon": -3.7118306, "tags": {"addr:city": "Madrid", "addr:housenumber": "2", "addr:postcode": "28005", "addr:street": "Calle de los Mancebos", "amenity": "bar", "contact:facebook": "https://es-es.facebook.com/elbombonmadrid/", "contact:phone": "+34 910 85 46 41", "name": "El Bomb\u00f3n", "old_name": "Stork"}}, {"type": "node", "id": 2082659469, "lat": 40.4565626, "lon": -3.7038973, "tags": {"addr:street": "Calle de Berruguete", "amenity": "bar", "check_date": "2023-10-31", "name": "8 Cero 9", "wheelchair": "no"}}, {"type": "node", "id": 2100652803, "lat": 40.3626869, "lon": -3.7579791, "tags": {"amenity": "bar", "check_date": "2024-07-25", "name": "La Peseta"}}, {"type": "node", "id": 2100659984, "lat": 40.3613605, "lon": -3.757743, "tags": {"amenity": "bar", "name": "El fog\u00f3n de Mariacasta\u00f1a"}}, {"type": "node", "id": 2100659985, "lat": 40.3622458, "lon": -3.7593085, "tags": {"amenity": "bar", "name": "Vinare"}}, {"type": "node", "id": 2100673947, "lat": 40.3618919, "lon": -3.7527112, "tags": {"amenity": "bar", "name": "Mejor Imposible", "old_name": "Meihua"}}, {"type": "node", "id": 2100678653, "lat": 40.3622189, "lon": -3.749286, "tags": {"amenity": "bar", "name": "Casa Paola"}}, {"type": "node", "id": 2121950920, "lat": 40.4231149, "lon": -3.7044312, "tags": {"addr:city": "Madrid", "addr:housenumber": "8", "addr:postcode": "28004", "addr:street": "Calle del Pez", "amenity": "bar", "contact:facebook": "https://es-es.facebook.com/adcbar/", "name": "ADC", "source": "survey"}}, {"type": "node", "id": 2121950925, "lat": 40.4238425, "lon": -3.705426, "tags": {"addr:city": "Madrid", "addr:housenumber": "20", "addr:postcode": "28004", "addr:street": "Calle del Pez", "amenity": "bar", "check_date": "2023-10-01", "contact:phone": "+34 910  24 20  73", "contact:website": "https://www.lartisanmadrid.es/", "name": "lartisan", "old_name": "Obbatal\u00e1", "old_name_1": "El Bistr\u00f3 del Teatro", "old_name_2": "Kuboking", "source": "survey"}}, {"type": "node", "id": 2144489288, "lat": 40.398528, "lon": -3.7674717, "tags": {"amenity": "bar", "name": "Bar Navas"}}, {"type": "node", "id": 2144489293, "lat": 40.3981337, "lon": -3.7673032, "tags": {"amenity": "bar", "name": "Bar Rafael"}}, {"type": "node", "id": 2144489346, "lat": 40.3848161, "lon": -3.7825395, "tags": {"amenity": "bar"}}, {"type": "node", "id": 2182343814, "lat": 40.44896, "lon": -3.6083112, "tags": {"amenity": "bar", "name": "El Gallo", "name:en": "Empanada", "wheelchair": "yes"}}, {"type": "node", "id": 2202011265, "lat": 40.4553481, "lon": -3.6931601, "tags": {"amenity": "bar", "name": "Cervecer\u00eda La Sure\u00f1a"}}, {"type": "node", "id": 2203440311, "lat": 40.3944085, "lon": -3.7532099, "tags": {"amenity": "bar", "name": "Boricua"}}, {"type": "node", "id": 2239998402, "lat": 40.4219622, "lon": -3.6940901, "tags": {"addr:city": "Madrid", "addr:housenumber": "2", "addr:postcode": "28004", "addr:street": "Calle del Conde de Xiquena", "amenity": "bar", "check_date": "2022-09-08", "old_name": "La Senda de Xiquena", "source": "survey", "wheelchair": "no"}}, {"type": "node", "id": 2261299371, "lat": 40.4141837, "lon": -3.7018737, "tags": {"addr:housenumber": "10", "addr:street": "Plaza del \u00c1ngel", "amenity": "bar", "name": "Caf\u00e9 Central", "source": "+34 913 69 41 43", "website": "https://www.cafecentralmadrid.com/"}}, {"type": "node", "id": 2261312784, "lat": 40.4154165, "lon": -3.7004013, "tags": {"addr:city": "Madrid", "addr:country": "ES", "addr:housenumber": "16", "addr:postcode": "28012", "addr:street": "Calle del Pr\u00edncipe", "amenity": "bar", "name": "La fiebre", "old_name": "Bar de la Comedia", "phone": "+34 696 56 39 09", "website": "https://lafiebremadrid.com/"}}, {"type": "node", "id": 2261314940, "lat": 40.4106999, "lon": -3.6978462, "tags": {"addr:city": "Madrid", "addr:country": "ES", "addr:housenumber": "9", "addr:postcode": "28012", "addr:street": "Calle de San Eugenio", "amenity": "bar", "name": "Vin\u00edcola Mentridana", "source": "+34 915 27 87 60"}}, {"type": "node", "id": 2262030106, "lat": 40.4237544, "lon": -3.6708826, "tags": {"amenity": "bar", "name": "Taberna Basarri", "source": "survey"}}, {"type": "node", "id": 2297581601, "lat": 40.4054177, "lon": -3.6974199, "tags": {"amenity": "bar", "name": "El 89", "source": "survey"}}, {"type": "node", "id": 2304318302, "lat": 40.4283313, "lon": -3.7080737, "tags": {"addr:city": "Madrid", "addr:housenumber": "15", "addr:postcode": "28015", "addr:street": "Calle de San Hermenegildo", "amenity": "bar", "name": "Mar\u00eda Bonita Taco Bar"}}, {"type": "node", "id": 2316161828, "lat": 40.3978147, "lon": -3.7712813, "tags": {"amenity": "bar", "name": "Cervecer\u00eda Garc\u00eda"}}, {"type": "node", "id": 2334279953, "lat": 40.3980249, "lon": -3.7680269, "tags": {"amenity": "bar", "name": "Hierbabuena"}}, {"type": "node", "id": 2334279954, "lat": 40.3975514, "lon": -3.7716352, "tags": {"amenity": "bar", "name": "La Barra Panda"}}, {"type": "node", "id": 2340330622, "lat": 40.4788287, "lon": -3.6978655, "tags": {"amenity": "bar", "name": "Felgar"}}, {"type": "node", "id": 2357618842, "lat": 40.410931, "lon": -3.6943629, "tags": {"amenity": "bar", "name": "Marrakech", "wheelchair": "limited"}}, {"type": "node", "id": 2357765924, "lat": 40.412526, "lon": -3.6960781}, {"type": "node", "id": 2357767944, "lat": 40.4127704, "lon": -3.6963795, "tags": {"amenity": "bar", "name": "Donde Chelo", "old_name": "Monam\u00ed", "wheelchair": "limited"}}, {"type": "node", "id": 2360828616, "lat": 40.4125533, "lon": -3.6937344}, {"type": "node", "id": 2360828619, "lat": 40.4124675, "lon": -3.6939}, {"type": "node", "id": 2383206293, "lat": 40.4257801, "lon": -3.6959139, "tags": {"addr:city": "Madrid", "addr:housenumber": "8", "addr:postcode": "28004", "addr:street": "Calle de Santa Teresa", "addr:subdistrict": "Justicia", "amenity": "bar", "name": "Barbara Ann", "old_name": "Chatarra", "website": "https://barbaraann.es/"}}, {"type": "node", "id": 2392696780, "lat": 40.4560694, "lon": -3.6806653, "tags": {"amenity": "bar", "name": "Cafeter\u00eda Santill\u00e1n"}}, {"type": "node", "id": 2392696948, "lat": 40.4559992, "lon": -3.6806338, "tags": {"amenity": "bar", "name": "Potos"}}, {"type": "node", "id": 2393597025, "lat": 40.4552826, "lon": -3.6807957, "tags": {"amenity": "bar"}}, {"type": "node", "id": 2393597208, "lat": 40.4551217, "lon": -3.6792346, "tags": {"amenity": "bar", "name": "Casinillo II"}}, {"type": "node", "id": 2394515080, "lat": 40.3991522, "lon": -3.6596353, "tags": {"addr:city": "Madrid", "addr:country": "ES", "addr:housenumber": "93", "addr:postcode": "28038", "addr:street": "Camino de Valderribas", "amenity": "bar", "name": "El Paso", "outdoor_seating": "yes"}}, {"type": "node", "id": 2430572373, "lat": 40.4107399, "lon": -3.7306952, "tags": {"amenity": "bar", "cuisine": "peruvian"}}, {"type": "node", "id": 2432426217, "lat": 40.4684174, "lon": -3.5799021, "tags": {"amenity": "bar"}}, {"type": "node", "id": 2432426220, "lat": 40.4687133, "lon": -3.5796312, "tags": {"amenity": "bar"}}, {"type": "node", "id": 2437723822, "lat": 40.4154628, "lon": -3.6995579, "tags": {"addr:city": "Madrid", "addr:housenumber": "15", "addr:postcode": "28014", "addr:street": "Calle de Echegaray", "amenity": "bar", "contact:email": "contacto@cardamomo.es", "contact:phone": "+34 918 051 038", "name": "Cardamomo", "website": "http://cardamomo.es/"}}, {"type": "node", "id": 2443440962, "lat": 40.5034829, "lon": -3.70838, "tags": {"amenity": "bar"}}, {"type": "node", "id": 2475150036, "lat": 40.4082985, "lon": -3.7130604, "tags": {"amenity": "bar", "name": "Ribadeza"}}, {"type": "node", "id": 2475150042, "lat": 40.4058987, "lon": -3.7113507, "tags": {"amenity": "bar", "name": "Salser\u00eda II"}}, {"type": "node", "id": 2477470246, "lat": 40.3721055, "lon": -3.6119759, "tags": {"addr:city": "Madrid", "addr:housenumber": "35", "addr:postcode": "28051", "addr:street": "Avenida de La Gavia", "amenity": "bar", "name": "Bar de copas La EGB"}}, {"type": "node", "id": 2477470265, "lat": 40.3710143, "lon": -3.5983556, "tags": {"amenity": "bar", "name": "Cervecer\u00eda La Sure\u00f1a"}}, {"type": "node", "id": 2514527325, "lat": 40.3711246, "lon": -3.7479069, "tags": {"amenity": "bar"}}, {"type": "node", "id": 2546777610, "lat": 40.4111209, "lon": -3.6986832, "tags": {"addr:city": "Madrid", "addr:country": "ES", "addr:postcode": "28012", "addr:street": "Calle de Santa Isabel", "amenity": "bar", "name": "Bar el H\u00f3rreo", "wheelchair": "limited"}}, {"type": "node", "id": 2546794612, "lat": 40.4103042, "lon": -3.6945747, "tags": {"addr:city": "Madrid", "addr:country": "ES", "addr:housenumber": "115", "addr:postcode": "28012", "addr:street": "Calle de Atocha", "amenity": "bar", "check_date": "2024-08-22", "name": "Maktub", "old_name": "Azahar", "wheelchair": "limited", "wheelchair:description": "The entry meets regulatory measures. The bathrooms are in the basement"}}, {"type": "node", "id": 2552482048, "lat": 40.412697, "lon": -3.69464}, {"type": "node", "id": 2556205184, "lat": 40.4311701, "lon": -3.7018644, "tags": {"addr:city": "Madrid", "addr:country": "ES", "addr:housenumber": "15", "addr:postcode": "28010", "addr:street": "Calle de Alburquerque", "amenity": "bar", "check_date": "2022-09-14", "name": "Hermanos Vinagre", "old_name": "El Paisano", "phone": "+34 914118799", "website": "https://hermanosvinagre.com/"}}, {"type": "node", "id": 2567586792, "lat": 40.4094031, "lon": -3.7121247, "tags": {"addr:city": "Madrid", "addr:housenumber": "22", "addr:street": "Calle de Calatrava", "amenity": "bar", "check_date": "2024-09-30", "name": "Eduardo", "old_name": "Taberna Calatrava, 22", "wheelchair": "limited"}}, {"type": "node", "id": 2568684627, "lat": 40.3445363, "lon": -3.7128193, "tags": {"amenity": "bar", "check_date": "2024-04-21", "name": "La Morcilla"}}, {"type": "node", "id": 2569444821, "lat": 40.4182665, "lon": -3.6963625, "tags": {"addr:city": "Madrid", "addr:country": "ES", "addr:housenumber": "42", "addr:postcode": "28014", "addr:street": "Calle de Alcal\u00e1", "amenity": "bar", "name": "Azotea de C\u00edrculo de Bellas Artes", "name:en": "Roof bar", "phone": "+34 911 234 567", "website": "https://www.azoteadelcirculo.com/", "wheelchair": "yes"}}, {"type": "node", "id": 2569444823, "lat": 40.4153727, "lon": -3.709051, "tags": {"amenity": "bar", "name": "El yantar de ayer"}}, {"type": "node", "id": 2583605060, "lat": 40.4214532, "lon": -3.7048542, "tags": {"amenity": "bar", "phone": "+34 91 532 55 64", "website": "https://www.gymage.es/?id=terrace"}}, {"type": "node", "id": 2583954354, "lat": 40.4243081, "lon": -3.7036592, "tags": {"addr:city": "Madrid", "addr:housenumber": "37", "addr:postcode": "28004", "addr:street": "Calle de la Madera", "amenity": "bar", "food": "yes", "name": "Casa Julio", "opening_hours": "Mo-Sa 13:00-15:30, 18:30-23:00", "phone": "+34 915 227 274", "website": "http://www.barcasajulio.es/"}}, {"type": "node", "id": 2583954711, "lat": 40.4237907, "lon": -3.7053122, "tags": {"addr:city": "Madrid", "addr:housenumber": "18", "addr:postcode": "28004", "addr:street": "Calle del Pez", "amenity": "bar", "check_date": "2023-10-03", "contact:instagram": "mediumclubmadrid", "name": "Medium", "wheelchair": "no"}}, {"type": "node", "id": 2583979989, "lat": 40.4266357, "lon": -3.7036552, "tags": {"addr:city": "Madrid", "addr:housenumber": "12", "addr:postcode": "28004", "addr:street": "Calle de San Andr\u00e9s", "amenity": "bar", "name": "Pepe Botella", "phone": "+34 91 522 43 09", "website": "http://www.cafepepebotella.es/es/", "wheelchair": "no", "wheelchair:description": "Escal\u00f3n muy alto"}}, {"type": "node", "id": 2584073568, "lat": 40.4062821, "lon": -3.7014976, "tags": {"addr:city": "Madrid", "addr:country": "ES", "addr:housenumber": "81", "addr:postcode": "28012", "addr:street": "Calle del Mes\u00f3n de Paredes", "amenity": "bar", "check_date": "2024-08-08", "name": "Los Rotos", "old_name": "Donde da la vuelta el viento", "outdoor_seating": "yes", "wheelchair": "no"}}, {"type": "node", "id": 2584983852, "lat": 40.4242531, "lon": -3.7093618, "tags": {"addr:city": "Madrid", "addr:housenumber": "6", "addr:postcode": "28015", "addr:street": "Calle de los Reyes", "amenity": "bar", "name": "Cervecer\u00eda History"}}, {"type": "node", "id": 2584988112, "lat": 40.424234, "lon": -3.7094177, "tags": {"addr:city": "Madrid", "addr:housenumber": "6", "addr:postcode": "28015", "addr:street": "Calle de los Reyes", "amenity": "bar", "contact:facebook": "https://www.facebook.com/pages/Rinc%C3%B3n-de-La-Habana/445248112183005", "name": "El Rinc\u00f3n de La Habana", "wheelchair": "no", "wheelchair:description": "Escal\u00f3n a la entrada"}}, {"type": "node", "id": 2585141470, "lat": 40.428529, "lon": -3.703306, "tags": {"addr:city": "Madrid", "addr:housenumber": "11", "addr:postcode": "28004", "addr:street": "Calle de Manuela Malasa\u00f1a", "amenity": "bar", "contact:facebook": "https://www.facebook.com/superchulomadrid/", "contact:phone": "+34 910 23 27 06", "contact:website": "http://www.superchulomadrid.com/", "name": "Superchulo"}}, {"type": "node", "id": 2585147466, "lat": 40.4237686, "lon": -3.7017746, "tags": {"addr:city": "Madrid", "addr:country": "ES", "addr:housenumber": "13", "addr:postcode": "28004", "addr:street": "Calle de Col\u00f3n", "amenity": "bar", "food": "yes", "name": "Bodega de la Ardosa", "opening_hours": "Mo-Fr 08:30-02:00; Sa-Su 11:45-02:30", "outdoor_seating": "no", "phone": "+34 915 214 979", "website": "http://www.laardosa.es/", "wheelchair": "limited", "wikidata": "Q30070624", "wikipedia": "es:Bodegas La Ardosa"}}, {"type": "node", "id": 2587660429, "lat": 40.4049626, "lon": -3.7077813, "tags": {"amenity": "bar", "name": "El Ideal"}}, {"type": "node", "id": 2587660433, "lat": 40.407892, "lon": -3.7127458, "tags": {"amenity": "bar", "name": "Mes\u00f3n O'agarimo"}}, {"type": "node", "id": 2597132609, "lat": 40.3949243, "lon": -3.7000665, "tags": {"addr:city": "Madrid", "addr:country": "ES", "addr:housenumber": "33", "addr:postcode": "28045", "addr:street": "Paseo de la Chopera", "amenity": "bar", "cuisine": "crepe", "email": "lunecreperie@gmail.com", "name": "Lune", "opening_hours": "Tu-Sa 14:00-23:00; Su 14:00-22:00", "phone": "+34 919 21 70 05", "website": "https://creperielune.es"}}, {"type": "node", "id": 2600826381, "lat": 40.4409432, "lon": -3.7073044, "tags": {"addr:housenumber": "40", "addr:street": "Avenida de Filipinas", "amenity": "bar", "name": "Kubo King"}}, {"type": "node", "id": 2606329602, "lat": 40.4322128, "lon": -3.6745577, "tags": {"addr:city": "Madrid", "addr:postcode": "28039", "addr:street": "Calle de Berruguete", "amenity": "bar", "name": "Bulevar", "operator": "Magizan Bulevar, SL"}}, {"type": "node", "id": 2606329604, "lat": 40.4325385, "lon": -3.6746592, "tags": {"amenity": "bar", "name": "Nam\u00ed"}}, {"type": "node", "id": 2606329607, "lat": 40.4329886, "lon": -3.6747868, "tags": {"amenity": "bar", "name": "El Duende"}}, {"type": "node", "id": 2614530657, "lat": 40.4288242, "lon": -3.7046672, "tags": {"addr:city": "Madrid", "addr:housenumber": "22", "addr:postcode": "28004", "addr:street": "Calle de Manuela Malasa\u00f1a", "amenity": "bar", "contact:facebook": "https://www.facebook.com/lamejorflorbar/info?tab=overview", "name": "La Mejor Flor", "phone": "+34 912 82 09 70"}}, {"type": "node", "id": 2614536500, "lat": 40.4288308, "lon": -3.7047273, "tags": {"addr:city": "Madrid", "addr:housenumber": "22", "addr:postcode": "28004", "addr:street": "Calle de Manuela Malasa\u00f1a", "amenity": "bar", "name": "Bar Amor", "phone": "+34 915 94 48 29"}}, {"type": "node", "id": 2621566573, "lat": 40.4195617, "lon": -3.6204087, "tags": {"amenity": "bar"}}, {"type": "node", "id": 2621636925, "lat": 40.4251923, "lon": -3.6811941, "tags": {"amenity": "bar", "name": "La Casa del Abuelo", "source": "survey", "wheelchair": "no"}}, {"type": "node", "id": 2622369617, "lat": 40.4097262, "lon": -3.6466832, "tags": {"amenity": "bar", "name": "Bar Mariaga"}}, {"type": "node", "id": 2627117464, "lat": 40.3960621, "lon": -3.7623418, "tags": {"addr:city": "Madrid", "addr:housename": "Bar Ibiza", "addr:housenumber": "69", "addr:postcode": "28024", "addr:street": "Calle de Escalona", "amenity": "bar", "name": "Bar Ibiza"}}, {"type": "node", "id": 2627203603, "lat": 40.4205066, "lon": -3.6988299, "tags": {"addr:city": "Madrid", "addr:housenumber": "13", "addr:postcode": "28004", "addr:street": "Calle de las Infantas", "amenity": "bar", "contact:website": "http://maskcopas.com/", "name": "+ K Copas", "old_name": "Pizzer\u00eda Casavostra"}}, {"type": "node", "id": 2629831948, "lat": 40.4242729, "lon": -3.7062465, "tags": {"addr:city": "Madrid", "addr:housenumber": "1", "addr:postcode": "28004", "addr:street": "Calle de Minas", "amenity": "bar", "contact:facebook": "https://es-es.facebook.com/picnicmadrid", "email": "barpicnic@gmail.com", "name": "Picnic", "phone": "+34 915 21 08 89"}}, {"type": "node", "id": 2630111358, "lat": 40.4243541, "lon": -3.7071179, "tags": {"addr:city": "Madrid", "addr:housenumber": "40", "addr:postcode": "28004", "addr:street": "Calle del Pez", "amenity": "bar", "contact:website": "https://pezgatomadrid.es/", "name": "El Pez Gato", "old_name": "Transsiberian;El Pez El\u00e9ctrico;Grama Arts Club;T\u00f3tem", "opening_hours": "We,Th 20:00-03:00; Fr 19:00-03:30; Sa 18:00-03:30; Su 19:00-03:00", "wheelchair": "no", "wheelchair:description": "Escal\u00f3n"}}, {"type": "node", "id": 2631415858, "lat": 40.4241653, "lon": -3.7065765, "tags": {"addr:city": "Madrid", "addr:housenumber": "27", "addr:postcode": "28004", "addr:street": "Calle del Pez", "amenity": "bar", "check_date": "2023-09-24", "contact:facebook": "https://es-es.facebook.com/1862DryBar", "name": "1862 Dry Bar", "opening_hours": "Mo-Th 15:30-02:00; Fr-Sa 15:30-02:30; Su 15:30-22:30", "phone": "+34 609 53 11 51", "wheelchair": "no"}}, {"type": "node", "id": 2639642119, "lat": 40.3819233, "lon": -3.7650042, "tags": {"addr:city": "Madrid", "addr:housenumber": "6", "addr:postcode": "28044", "addr:street": "Calle del Sangui\u00f1o", "amenity": "bar", "name": "Cervecer\u00eda Bremen"}}, {"type": "node", "id": 2642152849, "lat": 40.4259668, "lon": -3.6743929, "tags": {"addr:city": "Madrid", "addr:country": "ES", "addr:housenumber": "101", "addr:postcode": "28006", "addr:street": "Calle de Hermosilla", "amenity": "bar", "name": "Baretu"}}, {"type": "node", "id": 2642163107, "lat": 40.426074, "lon": -3.6761618, "tags": {"addr:city": "Madrid", "addr:country": "ES", "addr:housenumber": "91", "addr:postcode": "28001", "addr:street": "Calle de Hermosilla", "amenity": "bar", "name": "Casa Picote", "old_name": "Bar Torrijos", "wheelchair": "no"}}, {"type": "node", "id": 2643887902, "lat": 40.418605, "lon": -3.7075016, "tags": {"addr:city": "Madrid", "addr:housenumber": "7", "addr:postcode": "28013", "addr:street": "Calle de los Trujillos", "amenity": "bar", "lgbtq": "primary", "name": "Strong", "opening_hours": "Mo-Fr 23:30-06:00; Sa-Su 23:30-06:00", "phone": "+34915415415", "website": "http://www.strong-center.com/Strong.html"}}, {"type": "node", "id": 2643893685, "lat": 40.4176751, "lon": -3.7076269, "tags": {"addr:city": "Madrid", "addr:housenumber": "14", "addr:postcode": "28013", "addr:street": "Calle de las Hileras", "amenity": "bar", "email": "discosyunke@gmail.com", "name": "La Coquette", "phone": "+34 915 210 915"}}, {"type": "node", "id": 2645855662, "lat": 40.4249537, "lon": -3.7066713, "tags": {"addr:city": "Madrid", "addr:housenumber": "7", "addr:postcode": "28004", "addr:street": "Calle de Pozas", "amenity": "bar", "contact:facebook": "https://es-es.facebook.com/cazadorbar", "name": "Cazador", "opening_hours": "Mo-Th 17:00-02:00; Fr-Sa 17:00-02:30; Su 12:00-01:00"}}, {"type": "node", "id": 2645855663, "lat": 40.424559, "lon": -3.7066589, "tags": {"addr:city": "Madrid", "addr:housenumber": "3", "addr:postcode": "28004", "addr:street": "Calle de Pozas", "amenity": "bar", "name": "Ferrero", "wheelchair": "no"}}, {"type": "node", "id": 2645867632, "lat": 40.4256384, "lon": -3.7038336, "tags": {"addr:city": "Madrid", "addr:housenumber": "4", "addr:postcode": "28004", "addr:street": "Calle de San Andr\u00e9s", "amenity": "bar", "name": "Casa Camacho"}}, {"type": "node", "id": 2649377343, "lat": 40.4103086, "lon": -3.7017065, "tags": {"addr:city": "Madrid", "addr:housenumber": "6", "addr:postcode": "28012", "addr:street": "Calle de San Carlos", "amenity": "bar", "name": "Bodegas Lo M\u00e1ximo"}}, {"type": "node", "id": 2651748585, "lat": 40.4211294, "lon": -3.7054495, "tags": {"addr:city": "Madrid", "addr:housenumber": "4", "addr:postcode": "28004", "addr:street": "Calle de los Tudescos", "amenity": "bar", "name": "Next Level", "old_name": "Mind The Gap", "old_name_1": "Changes", "old_name_2": "2 Cero 5", "opening_hours": "Su-Th 18:00-01:00; Fr-Sa 18:00-03:00", "wheelchair": "limited", "wheelchair:description": "Sin escalones (interior desconocido). Puerta de 87 cm"}}, {"type": "node", "id": 2651989201, "lat": 40.4348255, "lon": -3.7017445, "tags": {"addr:city": "Madrid", "addr:housenumber": "8", "addr:postcode": "28010", "addr:street": "Calle General \u00c1lvarez de Castro", "amenity": "bar", "cuisine": "tapas", "name": "Taberna La Mina", "opening_hours": "Tu-Su 11:00-01:30"}}, {"type": "node", "id": 2653722452, "lat": 40.4247563, "lon": -3.7073338, "tags": {"addr:city": "Madrid", "addr:housenumber": "46", "addr:postcode": "28015", "addr:street": "Calle de San Bernardo", "amenity": "bar", "contact:phone": "+34 913 611 401", "contact:website": "http://www.elgatocanallamadrid.com/", "name": "Los m\u00e1s canallas", "old_name": "El Gato Canalla", "opening_hours": "Mo-Su 08:00-02:00", "survey:date": "2024-01-27", "wheelchair": "no", "wheelchair:description": "escalon >7cms"}}, {"type": "node", "id": 2653869273, "lat": 40.4271352, "lon": -3.7065848, "tags": {"addr:city": "Madrid", "addr:housenumber": "73", "addr:postcode": "28015", "addr:street": "Calle de San Bernardo", "amenity": "bar", "check_date": "2023-09-24", "contact:facebook": "https://es-es.facebook.com/LaPasaBar", "email": "LAPASAMALANA@GMAIL.COM", "name": "La Pasa", "phone": "+34 910 81 29 79", "wheelchair": "no"}}, {"type": "node", "id": 2656033535, "lat": 40.4164558, "lon": -3.7077761, "tags": {"addr:city": "Madrid", "addr:housenumber": "5", "addr:postcode": "28013", "addr:street": "Calle de Bordadores", "amenity": "bar", "name": "La Panoya"}}, {"type": "node", "id": 2656038561, "lat": 40.4165263, "lon": -3.7075762, "tags": {"addr:city": "Madrid", "addr:housenumber": "4", "addr:postcode": "28013", "addr:street": "Calle de Bordadores", "amenity": "bar", "name": "Lion"}}, {"type": "node", "id": 2656069336, "lat": 40.4151284, "lon": -3.7063631, "tags": {"addr:city": "Madrid", "addr:housenumber": "4", "addr:postcode": "28012", "addr:street": "Calle de Gerona", "amenity": "bar", "name": "Plaza Mayor"}}, {"type": "node", "id": 2661123393, "lat": 40.423764, "lon": -3.7016487, "tags": {"addr:city": "Madrid", "addr:country": "ES", "addr:housenumber": "11", "addr:postcode": "28004", "addr:street": "Calle de Col\u00f3n", "amenity": "bar", "name": "Casa Baranda", "old_name": "La Huida", "outdoor_seating": "no", "wheelchair": "limited"}}, {"type": "node", "id": 2663023166, "lat": 40.4253033, "lon": -3.7035583, "tags": {"addr:city": "Madrid", "addr:housenumber": "15", "addr:postcode": "28004", "addr:street": "Calle del Esp\u00edritu Santo", "amenity": "bar", "check_date": "2023-10-05", "contact:website": "https://www.sakromadrid.com/", "name": "Sakro", "old_name": "Vacaciones", "wheelchair": "no"}}, {"type": "node", "id": 2664863071, "lat": 40.4376823, "lon": -3.6809517, "tags": {"addr:city": "Madrid", "addr:housenumber": "37", "addr:postcode": "28006", "addr:street": "Calle de Mar\u00eda de Molina", "alt_name": "Nassau Madrid; La que se l\u00eda Dance club & nightclub", "amenity": "bar", "name": "La que se l\u00eda", "phone": "+34 910 88 50 40", "website": "https://grupolalala.com/locales/salas-de-fiesta/la-que-se-lia"}}, {"type": "node", "id": 2665127467, "lat": 40.4222647, "lon": -3.7039415, "tags": {"addr:city": "Madrid", "addr:housenumber": "15", "addr:postcode": "28004", "addr:street": "Calle de la Puebla", "amenity": "bar", "contact:facebook": "https://es-la.facebook.com/elperroclub", "name": "El Perro de la Parte de Atr\u00e1s del Coche", "phone": "+34 618 78 30 54"}}, {"type": "node", "id": 2667563698, "lat": 40.4271764, "lon": -3.7095911, "tags": {"addr:city": "Madrid", "addr:housenumber": "25", "addr:postcode": "28015", "addr:street": "Calle de Amaniel", "amenity": "bar", "name": "El Cangrejero", "wikidata": "Q57446846"}}, {"type": "node", "id": 2668366791, "lat": 40.4296555, "lon": -3.7079366, "tags": {"addr:city": "Madrid", "addr:housenumber": "5", "addr:postcode": "28015", "addr:street": "Calle de Alberto Aguilera", "amenity": "bar", "name": "Cervecer\u00eda Rold\u00e1n", "wheelchair": "no"}}, {"type": "node", "id": 2668366795, "lat": 40.4303321, "lon": -3.7114246, "tags": {"addr:city": "Madrid", "addr:housenumber": "36", "addr:postcode": "28015", "addr:street": "Calle de Alberto Aguilera", "amenity": "bar", "name": "Kaligula's", "website": "http://grupokaligulas.es", "wheelchair": "no"}}, {"type": "node", "id": 2668403174, "lat": 40.4358906, "lon": -3.7144082, "tags": {"addr:city": "Madrid", "addr:housenumber": "53", "addr:postcode": "28015", "addr:street": "Calle de Andr\u00e9s Mellado", "amenity": "bar", "name": "Bar Armando"}}, {"type": "node", "id": 2668403180, "lat": 40.4322526, "lon": -3.7143842, "tags": {"addr:city": "Madrid", "addr:housenumber": "18", "addr:postcode": "28015", "addr:street": "Calle de Andr\u00e9s Mellado", "amenity": "bar", "name": "La Taberna de Nacho"}}, {"type": "node", "id": 2669198769, "lat": 40.4271434, "lon": -3.7084532, "tags": {"addr:city": "Madrid", "addr:housenumber": "1", "addr:postcode": "28015", "addr:street": "Plaza de las Comendadoras", "amenity": "bar", "check_date": "2023-09-30", "contact:facebook": "https://www.facebook.com/pages/Kramer/261335687340473", "name": "Kramer", "outdoor_seating": "yes", "phone": "+34 604 54 52 51", "wheelchair": "limited"}}, {"type": "node", "id": 2669198770, "lat": 40.427306, "lon": -3.70847, "tags": {"addr:city": "Madrid", "addr:housenumber": "1", "addr:postcode": "28015", "addr:street": "Plaza de las Comendadoras", "amenity": "bar", "check_date": "2023-09-26", "email": "cafe.moderno@pm.me", "internet_access": "wlan", "name": "Caf\u00e9 Moderno", "opening_hours": "Mo 17:00-01:30; Tu-Th 09:30-01:30; Fr-Sa 09:30-02:00; Su 09:30-23:00 ", "outdoor_seating": "yes", "phone": "+34 604 54 52 51", "wheelchair": "limited"}}, {"type": "node", "id": 2669909213, "lat": 40.4298678, "lon": -3.7052903, "tags": {"addr:city": "Madrid", "addr:housenumber": "4", "addr:postcode": "28015", "addr:street": "Glorieta de Ruiz Jim\u00e9nez", "amenity": "bar", "name": "Bar Iberia", "survey:date": "2024-01-05"}}, {"type": "node", "id": 2669935789, "lat": 40.4317708, "lon": -3.7101988, "tags": {"addr:city": "Madrid", "addr:housenumber": "26", "addr:postcode": "28015", "addr:street": "Calle de Rodr\u00edguez San Pedro", "amenity": "bar", "cuisine": "regional", "name": "Bar S\u00e1nchez"}}, {"type": "node", "id": 2669978634, "lat": 40.433136, "lon": -3.7134979, "tags": {"addr:city": "Madrid", "addr:housenumber": "33", "addr:postcode": "28015", "addr:street": "Calle de Guzm\u00e1n el Bueno", "amenity": "bar", "name": "Los Chicos"}}, {"type": "node", "id": 2669997846, "lat": 40.4352708, "lon": -3.7140351, "tags": {"addr:city": "Madrid", "addr:housenumber": "71", "addr:postcode": "28015", "addr:street": "Calle de Fern\u00e1ndez de los R\u00edos", "amenity": "bar", "contact:facebook": "https://es-es.facebook.com/BarBukavu", "name": "Bukavu", "phone": "+34 915 43 81 16"}}, {"type": "node", "id": 2671114632, "lat": 40.4290265, "lon": -3.7092369, "tags": {"addr:city": "Madrid", "addr:housenumber": "42", "addr:postcode": "28015", "addr:street": "Calle del Conde Duque", "amenity": "bar", "name": "Rhino", "old_name": "Bar Leiner"}}, {"type": "node", "id": 2671134385, "lat": 40.4312897, "lon": -3.7090267, "tags": {"addr:city": "Madrid", "addr:housenumber": "15", "addr:postcode": "28015", "addr:street": "Calle de Vallehermoso", "amenity": "bar", "name": "Garden"}}, {"type": "node", "id": 2671241919, "lat": 40.426791, "lon": -3.7081778, "tags": {"addr:city": "Madrid", "addr:postcode": "28015", "addr:street": "Calle de la Palma", "amenity": "bar", "contact:facebook": "https://es-es.facebook.com/elamorhermosobar/", "contact:phone": "+34 606 21 64 82", "name": "El Amor Hermoso", "old_name": "Bar Jos\u00e9"}}, {"type": "node", "id": 2671241930, "lat": 40.4260905, "lon": -3.7074034, "tags": {"addr:city": "Madrid", "addr:housenumber": "51", "addr:postcode": "28015", "addr:street": "Calle de San Vicente Ferrer", "amenity": "bar", "email": "carmencita@carmencitabar.com", "name": "La Carmencita", "phone": "+34 915 23 80 73", "website": "https://www.carmencitabar.com/"}}, {"type": "node", "id": 2674508120, "lat": 40.4213851, "lon": -3.7014358, "tags": {"addr:city": "Madrid", "addr:country": "ES", "addr:housenumber": "3", "addr:postcode": "28004", "addr:street": "Calle de San Onofre", "amenity": "bar", "name": "La Austriaca"}}, {"type": "node", "id": 2676403354, "lat": 40.4199417, "lon": -3.6791678, "tags": {"addr:city": "Madrid", "addr:country": "ES", "addr:housenumber": "17", "addr:postcode": "28009", "addr:street": "Avenida de Men\u00e9ndez Pelayo", "amenity": "bar", "name": "Casa Mart\u00edn"}}, {"type": "node", "id": 2676681007, "lat": 40.4257426, "lon": -3.7134716, "tags": {"addr:city": "Madrid", "addr:housenumber": "5", "addr:postcode": "28008", "addr:street": "Calle de Ventura Rodr\u00edguez", "amenity": "bar", "name": "Bora Bora", "phone": "+34 915 420 467", "website": "http://www.borabora-polinessianbar.com/"}}, {"type": "node", "id": 2676855000, "lat": 40.4227035, "lon": -3.7036384, "tags": {"addr:city": "Madrid", "addr:country": "ES", "addr:housenumber": "31", "addr:postcode": "28004", "addr:street": "Corredera Baja de San Pablo", "amenity": "bar", "contact:facebook": "https://www.facebook.com/elperroylagalletamalasana", "contact:instagram": "https://www.instagram.com/elperroylagalletamalasana/", "cuisine": "regional", "name": "El Perro y la Galleta", "old_name": "Bar Galleta", "wikidata": "Q57446009"}}, {"type": "node", "id": 2676855001, "lat": 40.4235992, "lon": -3.7050937, "tags": {"addr:city": "Madrid", "addr:housenumber": "16", "addr:postcode": "28004", "addr:street": "Calle del Pez", "amenity": "bar", "contact:website": "http://estacionmalasana.es/", "name": "Estaci\u00f3n Malasa\u00f1a", "old_name": "The Passenger"}}, {"type": "node", "id": 2678581208, "lat": 40.4235515, "lon": -3.7086469, "tags": {"addr:city": "Madrid", "addr:housenumber": "7", "addr:postcode": "28015", "addr:street": "Plaza de los Mostenses", "amenity": "bar", "name": "Bar Selva", "wheelchair": "no", "wheelchair:description": "Escalones"}}, {"type": "node", "id": 2681923263, "lat": 40.4244839, "lon": -3.7094111, "tags": {"addr:city": "Madrid", "addr:housenumber": "2", "addr:postcode": "28015", "addr:street": "Plaza del Conde de Toreno", "amenity": "bar", "contact:facebook": "https://es-es.facebook.com/fotomatonbarconciertos", "name": "Fotomat\u00f3n", "wheelchair": "no"}}, {"type": "node", "id": 2682145878, "lat": 40.4251293, "lon": -3.7104369, "tags": {"addr:city": "Madrid", "addr:housenumber": "7", "addr:postcode": "28015", "addr:street": "Calle de San Bernardino", "amenity": "bar", "check_date": "2023-09-26", "name": "Agua Bendita", "old_name": "La Mantequer\u00eda", "wheelchair": "no"}}, {"type": "node", "id": 2682145885, "lat": 40.4258228, "lon": -3.7114957, "tags": {"addr:city": "Madrid", "addr:housenumber": "2", "addr:postcode": "28015", "addr:street": "Calle del Conde Duque", "amenity": "bar", "name": "El Jard\u00edn Secreto", "website": "https://www.eljardinsecretomadrid.com/main/", "wheelchair": "limited"}}, {"type": "node", "id": 2683834796, "lat": 40.4232589, "lon": -3.7066651, "tags": {"addr:city": "Madrid", "addr:housenumber": "8", "addr:postcode": "28004", "addr:street": "Calle de Andr\u00e9s Borrego", "amenity": "bar", "name": "Alevos\u00eda", "old_name": "Destino"}}, {"type": "node", "id": 2686354969, "lat": 40.4288286, "lon": -3.7034042, "tags": {"addr:city": "Madrid", "addr:housenumber": "33", "addr:postcode": "28004", "addr:street": "Calle de San Andr\u00e9s", "amenity": "bar", "contact:facebook": "https://www.facebook.com/Varsovia-bar-cocktail-1589485831363554/", "name": "Varsovia", "old_name": "Caf\u00e9 El Parnasillo"}}, {"type": "node", "id": 2686612542, "lat": 40.4225907, "lon": -3.7046441, "tags": {"addr:city": "Madrid", "addr:housenumber": "14", "addr:postcode": "28004", "addr:street": "Calle de San Roque", "amenity": "bar", "contact:facebook": "https://www.facebook.com/estupendacafebar/", "name": "Estupenda", "old_name": "El Fabuloso Coconut", "phone": "+34 605 96 24 05", "wheelchair": "limited", "wheelchair:description": "Dos escalones, uno de 16cm y otro de 8cm"}}, {"type": "node", "id": 2692358624, "lat": 40.406098, "lon": -3.7078743, "tags": {"addr:housenumber": "3", "addr:street": "Ronda de Toledo", "amenity": "bar", "check_date": "2024-09-24", "name": "Gourmet", "old_name": "Paco y Miguel", "wheelchair": "no"}}, {"type": "node", "id": 2692581960, "lat": 40.4233876, "lon": -3.7027566, "tags": {"addr:city": "Madrid", "addr:country": "ES", "addr:housenumber": "49", "addr:postcode": "28004", "addr:street": "Corredera Baja de San Pablo", "amenity": "bar", "check_date": "2023-10-20", "name": "Farmacia de Guardia"}}, {"type": "node", "id": 2692581964, "lat": 40.4237802, "lon": -3.7020962, "tags": {"addr:city": "Madrid", "addr:country": "ES", "addr:housenumber": "15", "addr:postcode": "28004", "addr:street": "Calle de Col\u00f3n", "amenity": "bar", "name": "Sidi", "outdoor_seating": "no", "wheelchair": "limited"}}, {"type": "node", "id": 2692581973, "lat": 40.4232668, "lon": -3.7028673, "tags": {"addr:city": "Madrid", "addr:housenumber": "47", "addr:postcode": "28004", "addr:street": "Corredera Baja de San Pablo", "amenity": "bar", "check_date": "2023-10-20", "contact:facebook": "https://es-es.facebook.com/Gorilamadrid", "email": "gorilacafemadrid@gmail.com", "name": "Gorila", "phone": "+34 910 07 08 88", "wikidata": "Q57446406"}}, {"type": "node", "id": 2694452207, "lat": 40.4206008, "lon": -3.707832, "tags": {"addr:city": "Madrid", "addr:housenumber": "4", "addr:postcode": "28013", "addr:street": "Calle de Silva", "amenity": "bar", "name": "Tanka's"}}, {"type": "node", "id": 2694514305, "lat": 40.419116, "lon": -3.7070473, "tags": {"addr:city": "Madrid", "addr:housenumber": "7", "addr:postcode": "28013", "addr:street": "Calle de las Navas de Tolosa", "amenity": "bar", "name": "Vi\u00f1a"}}, {"type": "node", "id": 2696236499, "lat": 40.4189491, "lon": -3.7082735, "tags": {"addr:city": "Madrid", "addr:housenumber": "9", "addr:postcode": "28013", "addr:street": "Costanilla de los \u00c1ngeles", "amenity": "bar", "name": "La Galer\u00eda"}}, {"type": "node", "id": 2696236500, "lat": 40.4189322, "lon": -3.7081204, "tags": {"addr:city": "Madrid", "addr:housenumber": "12", "addr:postcode": "28013", "addr:street": "Costanilla de los \u00c1ngeles", "amenity": "bar", "name": "La Cervecer\u00eda Deportiva"}}, {"type": "node", "id": 2696236503, "lat": 40.4173077, "lon": -3.7087212, "tags": {"addr:city": "Madrid", "addr:housenumber": "9", "addr:postcode": "28013", "addr:street": "Calle de las Fuentes", "amenity": "bar", "name": "La candela de mojama"}}, {"type": "node", "id": 2696236504, "lat": 40.4141739, "lon": -3.7085488, "tags": {"addr:city": "Madrid", "addr:housenumber": "3", "addr:postcode": "28005", "addr:street": "Calle G\u00f3mez de Mora", "amenity": "bar", "name": "Plaza Menor"}}, {"type": "node", "id": 2697521932, "lat": 40.4154499, "lon": -3.7132643, "tags": {"addr:city": "Madrid", "addr:housenumber": "19", "addr:postcode": "28013", "addr:street": "Calle de Bail\u00e9n", "amenity": "bar", "check_date": "2023-09-01", "name": "El Anciano Rey de los Vinos", "phone": "+34 91 559 53 32", "website": "https://elancianoreydelosvinos.es/"}}, {"type": "node", "id": 2697521934, "lat": 40.4124908, "lon": -3.7145144, "tags": {"addr:city": "Madrid", "addr:housenumber": "1", "addr:postcode": "28005", "addr:street": "Plaza Gabriel Mir\u00f3", "amenity": "bar", "name": "Mar\u00eda Pandora", "phone": "+34 913 64 00 39", "website": "https://www.mariapandora.com/"}}, {"type": "node", "id": 2697589097, "lat": 40.4165548, "lon": -3.7111395}, {"type": "node", "id": 2702466185, "lat": 40.4266746, "lon": -3.7077598, "tags": {"addr:city": "Madrid", "addr:housenumber": "63", "addr:postcode": "28015", "addr:street": "Calle de la Palma", "amenity": "bar", "check_date": "2023-09-21", "contact:phone": "+34 91 781 81 28", "contact:website": "https://www.bravowinebar.com/es/", "name": "Bravo Wine Bar", "old_name": "Caf\u00e9 Coyote", "old_name_1": "La Loca Juana"}}, {"type": "node", "id": 2702466186, "lat": 40.4266664, "lon": -3.7076527, "tags": {"addr:city": "Madrid", "addr:housenumber": "61", "addr:postcode": "28015", "addr:street": "Calle de la Palma", "amenity": "bar", "name": "Bodegas Rivas"}}, {"type": "node", "id": 2702466187, "lat": 40.4267717, "lon": -3.7079918, "tags": {"addr:city": "Madrid", "addr:housenumber": "62", "addr:postcode": "28015", "addr:street": "Calle de la Palma", "amenity": "bar", "email": "cafelapalma@cafelapalma.com", "name": "Caf\u00e9 La Palma", "phone": "+34 91 522 50 31", "website": "https://www.cafelapalma.com/"}}, {"type": "node", "id": 2702466188, "lat": 40.4267146, "lon": -3.7081783, "tags": {"addr:city": "Madrid", "addr:housenumber": "67", "addr:postcode": "28015", "addr:street": "Calle de la Palma", "amenity": "bar", "name": "La Palmera"}}, {"type": "node", "id": 2703977210, "lat": 40.4240264, "lon": -3.7053877, "tags": {"addr:city": "Madrid", "addr:housenumber": "2", "addr:postcode": "28004", "addr:street": "Calle del Marqu\u00e9s de Santa Ana", "amenity": "bar", "check_date": "2023-09-24", "name": "el especial", "old_name": "Tiovivo", "old_name_1": "La Paralela", "old_name_2": "Vian", "wheelchair": "no"}}, {"type": "node", "id": 2703977212, "lat": 40.4241773, "lon": -3.7053112, "tags": {"addr:city": "Madrid", "addr:housenumber": "7", "addr:postcode": "28004", "addr:street": "Calle del Marqu\u00e9s de Santa Ana", "amenity": "bar", "check_date": "2023-09-24", "old_name": "La Milana Bonita", "shop": "vacant"}}, {"type": "node", "id": 2703977219, "lat": 40.425203, "lon": -3.703746, "tags": {"addr:city": "Madrid", "addr:housenumber": "32", "addr:postcode": "28004", "addr:street": "Calle del Marqu\u00e9s de Santa Ana", "amenity": "bar", "name": "Punto Sur", "old_name": "El \u00daltimo"}}, {"type": "node", "id": 2703977221, "lat": 40.4254398, "lon": -3.703586, "tags": {"addr:city": "Madrid", "addr:housenumber": "26", "addr:postcode": "28004", "addr:street": "Calle del Esp\u00edritu Santo", "amenity": "bar", "name": "El Rinc\u00f3n"}}, {"type": "node", "id": 2704017909, "lat": 40.4269196, "lon": -3.7036092, "tags": {"addr:city": "Madrid", "addr:housenumber": "18", "addr:postcode": "28004", "addr:street": "Calle de San Andr\u00e9s", "amenity": "bar", "check_date": "2023-09-24", "name": "El 2D", "outdoor_seating": "yes", "wheelchair": "no", "wheelchair:description": "Escal\u00f3n alto"}}, {"type": "node", "id": 2713719961, "lat": 40.4871076, "lon": -3.7015592, "tags": {"addr:city": "Madrid", "addr:housenumber": "23", "addr:postcode": "28034", "addr:street": "Calle de Alfredo Marquer\u00ede", "amenity": "bar", "name": "El 23"}}, {"type": "node", "id": 2715333601, "lat": 40.4268477, "lon": -3.7087489, "tags": {"addr:city": "Madrid", "addr:housenumber": "72", "addr:postcode": "28015", "addr:street": "Calle de la Palma", "amenity": "bar", "contact:facebook": "https://es-la.facebook.com/Estocolmo.bar", "name": "Estocolmo"}}, {"type": "node", "id": 2715333606, "lat": 40.4268424, "lon": -3.7086952, "tags": {"addr:city": "Madrid", "addr:housenumber": "70", "addr:postcode": "28015", "addr:street": "Calle de la Palma", "amenity": "bar", "contact:facebook": "https://www.facebook.com/La-Caracola-del-Norte-1352561858148381/?ref=page_internal", "name": "La Caracola del Norte"}}, {"type": "node", "id": 2723834805, "lat": 40.4143535, "lon": -3.7009567, "tags": {"addr:city": "Madrid", "addr:housenumber": "10", "addr:postcode": "28012", "addr:street": "Plaza de Santa Ana", "amenity": "bar", "brewery": "yes", "check_date": "2024-03-29", "email": "info@cerveceriasantaana.com", "name": "Cervecer\u00eda Santa Ana", "name:zh": "\u559d\u5564\u9152\u7684\u597d\u5730\u65b9", "phone": "+34 91 429 36 35", "website": "https://cerveceriasantaana.com/", "wikidata": "Q57446757"}}, {"type": "node", "id": 2725509702, "lat": 40.4257122, "lon": -3.708724, "tags": {"addr:city": "Madrid", "addr:housenumber": "16", "addr:postcode": "28015", "addr:street": "Calle de Noviciado", "amenity": "bar", "contact:facebook": "https://es-es.facebook.com/pages/Candi/47511143720", "name": "Candi"}}, {"type": "node", "id": 2725509705, "lat": 40.4258631, "lon": -3.7101173, "tags": {"addr:city": "Madrid", "addr:postcode": "28015", "addr:street": "Traves\u00eda del Conde Duque", "amenity": "bar", "name": "El Chorrillo", "old_name": "Toledano", "wheelchair": "no"}}, {"type": "node", "id": 2725509709, "lat": 40.426245, "lon": -3.7106678, "tags": {"addr:city": "Madrid", "addr:housenumber": "11", "addr:postcode": "28015", "addr:street": "Calle del Lim\u00f3n", "amenity": "bar", "email": "rustikacafe@yahoo.es", "name": "Rustika", "phone": "+34 619248255", "website": "http://www.rustikacafe.net/"}}, {"type": "node", "id": 2725509720, "lat": 40.4265288, "lon": -3.7105579, "tags": {"addr:city": "Madrid", "addr:housenumber": "15", "addr:postcode": "28015", "addr:street": "Calle del Lim\u00f3n", "amenity": "bar", "contact:phone": "+34 622 035 741", "contact:website": "http://www.macanudobarespacioarte.es/", "name": "Macanudo", "old_name": "El Verde Lim\u00f3n"}}, {"type": "node", "id": 2725509726, "lat": 40.4264797, "lon": -3.7104605, "tags": {"addr:city": "Madrid", "addr:housenumber": "16", "addr:postcode": "28015", "addr:street": "Calle del Lim\u00f3n", "amenity": "bar", "name": "Taberna de Abajo"}}, {"type": "node", "id": 2725509731, "lat": 40.426784, "lon": -3.7102896, "tags": {"addr:city": "Madrid", "addr:housenumber": "22", "addr:postcode": "28015", "addr:street": "Calle del Lim\u00f3n", "amenity": "bar", "name": "Taberna del Lim\u00f3n"}}, {"type": "node", "id": 2725509744, "lat": 40.4269337, "lon": -3.7103729, "tags": {"addr:city": "Madrid", "addr:housenumber": "1", "addr:postcode": "28015", "addr:street": "Plaza de los Guardias de Corps", "amenity": "bar", "check_date": "2023-09-26", "name": "Taberna de Corps", "outdoor_seating": "yes", "wheelchair": "no"}}, {"type": "node", "id": 2728979086, "lat": 40.4207051, "lon": -3.7091551, "tags": {"addr:city": "Madrid", "addr:housenumber": "12", "addr:postcode": "28013", "addr:street": "Plaza de Santo Domingo", "amenity": "bar", "name": "Bar Mu\u00f1iz"}}, {"type": "node", "id": 2728979106, "lat": 40.4197232, "lon": -3.7090013, "tags": {"addr:city": "Madrid", "addr:housenumber": "16", "addr:postcode": "28013", "addr:street": "Cuesta de Santo Domingo", "amenity": "bar", "name": "Cervecer\u00eda Monje"}}, {"type": "node", "id": 2730780941, "lat": 40.4045499, "lon": -3.6811754, "tags": {"amenity": "bar", "name": "Bodegas Casas"}}, {"type": "node", "id": 2732823170, "lat": 40.4645709, "lon": -3.5884045, "tags": {"amenity": "bar", "name": "Bar Pepito"}}, {"type": "node", "id": 2755071743, "lat": 40.4099113, "lon": -3.7070297, "tags": {"addr:city": "Madrid", "addr:housenumber": "11", "addr:postcode": "28005", "addr:street": "Plaza de Cascorro", "amenity": "bar", "capacity": "40", "name": "Cafe des Sports", "phone": "+34910834380", "smoking": "outside", "wheelchair": "no", "wheelchair:description": "Escalon > 7cm"}}, {"type": "node", "id": 2756126346, "lat": 40.4251497, "lon": -3.7032742, "tags": {"addr:city": "Madrid", "addr:housenumber": "31", "addr:postcode": "28004", "addr:street": "Calle de Jes\u00fas del Valle", "amenity": "bar", "check_date": "2023-10-05", "contact:facebook": "https://es-es.facebook.com/superpopbar/", "name": "S\u00faper Pop Bar", "old_name": "Caf\u00e9-Bar Bendita;Espacio Quoncor", "phone": "+34 605 96 26 24", "wheelchair": "limited"}}, {"type": "node", "id": 2769265445, "lat": 40.4238524, "lon": -3.7013629, "tags": {"addr:city": "Madrid", "addr:housenumber": "12", "addr:postcode": "28004", "addr:street": "Calle de Col\u00f3n", "amenity": "bar", "contact:facebook": "https://es-es.facebook.com/WHARF73", "email": "wharf73madrid@gmail.com", "name": "Wharf 73", "phone": "+34 649 76 76 76"}}, {"type": "node", "id": 2777281758, "lat": 40.4261262, "lon": -3.6981877, "tags": {"addr:city": "Madrid", "addr:housenumber": "21", "addr:postcode": "28004", "addr:street": "Calle de San Mateo", "addr:subdistrict": "Justicia", "alt_name": "Macera Taller Bar", "amenity": "bar", "contact:facebook": "https://www.facebook.com/Macera-TallerBar-385185174987576/", "contact:phone": "+34 910 11 58 10", "contact:website": "http://www.maceradrinks.com/", "name": "Macera", "old_name": "Deja Vu", "wikidata": "Q57446560"}}, {"type": "node", "id": 2777281759, "lat": 40.4261723, "lon": -3.6980858, "tags": {"addr:city": "Madrid", "addr:housenumber": "21", "addr:postcode": "28004", "addr:street": "Calle de San Mateo", "addr:subdistrict": "Justicia", "amenity": "bar", "name": "Cuatro de Ocho", "old_name": "P\u00e1 Jam\u00e1", "website": "https://alcaravea.com/cuatrodeocho/"}}, {"type": "node", "id": 2779332371, "lat": 40.4271584, "lon": -3.6748915, "tags": {"addr:city": "Madrid", "addr:housenumber": "102", "addr:postcode": "28006", "addr:street": "Calle de Ayala", "amenity": "bar", "name": "Bar Ayala"}}, {"type": "node", "id": 2779332414, "lat": 40.4273588, "lon": -3.6783279, "tags": {"addr:city": "Madrid", "addr:housenumber": "82", "addr:postcode": "28001", "addr:street": "Calle de Ayala", "amenity": "bar", "name": "DG Lounge Coffee", "phone": "+34 914318769", "website": "http://loungecoffee.com/lounge/ubicacion.html"}}, {"type": "node", "id": 2782198968, "lat": 40.4231671, "lon": -3.7058956, "tags": {"addr:city": "Madrid", "addr:housenumber": "13", "addr:postcode": "28004", "addr:street": "Calle Pizarro", "amenity": "bar", "check_date": "2023-10-04", "name": "La Fer", "old_name": "El Rinc\u00f3n de Falin", "wheelchair": "no"}}, {"type": "node", "id": 2799017153, "lat": 40.3631669, "lon": -3.5977048, "tags": {"amenity": "bar", "name": "Ensanche 71"}}, {"type": "node", "id": 2799017156, "lat": 40.3676749, "lon": -3.6008728, "tags": {"amenity": "bar", "name": "Lakshmi"}}, {"type": "node", "id": 2800761748, "lat": 40.4023377, "lon": -3.6226454, "tags": {"addr:city": "Madrid", "addr:housenumber": "10", "addr:postcode": "28032", "addr:street": "Plaza de Rosa Chacel", "amenity": "bar", "name": "BareM@gnum"}}, {"type": "node", "id": 2800761751, "lat": 40.3988437, "lon": -3.622353, "tags": {"addr:city": "Madrid", "addr:housenumber": "26", "addr:postcode": "28032", "addr:street": "Bulevar de Indalecio Prieto", "amenity": "bar", "name": "As Sport Bar"}}, {"type": "node", "id": 2813472230, "lat": 40.4257581, "lon": -3.6987067, "tags": {"addr:city": "Madrid", "addr:housenumber": "22", "addr:postcode": "28004", "addr:street": "Calle de San Mateo", "addr:subdistrict": "Justicia", "amenity": "bar", "name": "Adam", "old_name": "Task\u00f3polis La Tasca Internacional", "website": "http://adamsocialclub.es/", "wheelchair": "yes"}}, {"type": "node", "id": 2815481540, "lat": 40.4268967, "lon": -3.7034379, "tags": {"addr:city": "Madrid", "addr:housenumber": "24", "addr:postcode": "28004", "addr:street": "Calle de Velarde", "amenity": "bar", "check_date": "2023-09-27", "contact:facebook": "https://es-es.facebook.com/verbenabarmadriz", "name": "Verbena Bar", "phone": "+34 914 26 64 91", "wheelchair": "no", "wheelchair:description": "Escal\u00f3n muy alto", "wikidata": "Q57446098"}}, {"type": "node", "id": 2815481542, "lat": 40.4267603, "lon": -3.7028571, "tags": {"addr:city": "Madrid", "addr:housenumber": "9", "addr:postcode": "28004", "addr:street": "Calle de Velarde", "amenity": "bar", "check_date": "2023-09-27", "name": "Laberinto", "wheelchair": "no", "wheelchair:description": "2 escalones"}}, {"type": "node", "id": 2820273947, "lat": 40.4219187, "lon": -3.7060007, "tags": {"addr:city": "Madrid", "addr:housenumber": "3", "addr:postcode": "28004", "addr:street": "Calle de la Estrella", "amenity": "bar", "name": "Ideal", "old_name": "Juanita Banana"}}, {"type": "node", "id": 2820273948, "lat": 40.4219617, "lon": -3.7060665, "tags": {"addr:city": "Madrid", "addr:housenumber": "3", "addr:postcode": "28004", "addr:street": "Calle de la Estrella", "amenity": "bar", "old_name": "El Fabuloso"}}, {"type": "node", "id": 2824456974, "lat": 40.4195047, "lon": -3.7095064, "tags": {"addr:city": "Madrid", "addr:housenumber": "10", "addr:postcode": "28013", "addr:street": "Cuesta de Santo Domingo", "amenity": "bar", "contact:phone": "+34 91 297 66 80", "contact:website": "http://www.sankaraloungebar.es/", "name": "Sankara Lounge Bar", "old_name": "La Encantada Reina de Cuba"}}, {"type": "node", "id": 2832332736, "lat": 40.4533285, "lon": -3.7000147, "tags": {"amenity": "bar", "name": "La Zure"}}, {"type": "node", "id": 2839832721, "lat": 40.4582797, "lon": -3.6736282, "tags": {"amenity": "bar", "name": "La Bomba Bar"}}, {"type": "node", "id": 2864063288, "lat": 40.4583293, "lon": -3.6801966, "tags": {"amenity": "bar", "name": "Forty Six"}}, {"type": "node", "id": 2864197169, "lat": 40.4570535, "lon": -3.6990651, "tags": {"amenity": "bar", "name": "La Taka\u00f1a", "old_name": "Wendel's"}}, {"type": "node", "id": 2867455331, "lat": 40.4585098, "lon": -3.6841131, "tags": {"amenity": "bar", "name": "Mercado Provenzal"}}, {"type": "node", "id": 2868776266, "lat": 40.4573123, "lon": -3.7119998, "tags": {"amenity": "bar", "name": "Michele's Bar Francos Rodr\u00edguez", "old_name": "Frisbee"}}, {"type": "node", "id": 2877835224, "lat": 40.4114301, "lon": -3.7090054, "tags": {"addr:city": "Madrid", "addr:street": "Plaza de la Cebada", "amenity": "bar", "contact:phone": "+34 639 400 954", "name": "Lorena", "old_name": "Dehesa de los Pedroches"}}, {"type": "node", "id": 2883849005, "lat": 40.4410002, "lon": -3.6938377, "tags": {"amenity": "bar", "name": "Pel Place"}}, {"type": "node", "id": 2892561608, "lat": 40.4280161, "lon": -3.7167772, "tags": {"amenity": "bar", "name": "La Tizona"}}, {"type": "node", "id": 2894396964, "lat": 40.4322941, "lon": -3.7191022, "tags": {"amenity": "bar", "name": "R\u00edo Durat\u00f3n"}}, {"type": "node", "id": 2910965642, "lat": 40.4594337, "lon": -3.702274, "tags": {"addr:city": "Madrid", "addr:housenumber": "3", "addr:postcode": "28039", "addr:street": "Calle de la Hierbabuena", "amenity": "bar", "name": "Jarra y Pedal", "opening_hours": "PH,Tu-Su 08:00-24:00"}}, {"type": "node", "id": 2916188366, "lat": 40.4474054, "lon": -3.7042257, "tags": {"amenity": "bar", "name": "Rub\u00ed"}}, {"type": "node", "id": 2924977457, "lat": 40.4352426, "lon": -3.6863163, "tags": {"addr:city": "Madrid", "addr:housenumber": "110", "addr:postcode": "28006", "addr:street": "Calle de Serrano", "amenity": "bar", "currency:XBT": "no", "name": "Makkila"}}, {"type": "node", "id": 2930709925, "lat": 40.4590725, "lon": -3.7005483, "tags": {"addr:city": "Madrid", "addr:housenumber": "4", "addr:postcode": "28039", "addr:street": "Calle de Mar\u00eda Zayas", "amenity": "bar", "name": "Tir\u00f3n"}}, {"type": "node", "id": 2932436337, "lat": 40.4600448, "lon": -3.7001686, "tags": {"addr:city": "Madrid", "addr:housenumber": "5", "addr:postcode": "28039", "addr:street": "Calle de los Algodonales", "amenity": "bar", "name": "Baranzo"}}, {"type": "node", "id": 2932436338, "lat": 40.4601708, "lon": -3.7004217, "tags": {"addr:city": "Madrid", "addr:housenumber": "9", "addr:postcode": "28039", "addr:street": "Calle de los Algodonales", "amenity": "bar", "name": "Distrito Tetu\u00e1n"}}, {"type": "node", "id": 2941635139, "lat": 40.4613973, "lon": -3.7014951, "tags": {"addr:city": "Madrid", "addr:housenumber": "35 D", "addr:postcode": "28039", "addr:street": "Calle del Naranjo", "amenity": "bar", "name": "Crespo"}}, {"type": "node", "id": 2944066790, "lat": 40.4031309, "lon": -3.6443477, "tags": {"addr:city": "Madrid", "addr:housenumber": "124", "addr:postcode": "28030", "addr:street": "Calle de la Hacienda de Pavones", "amenity": "bar", "indoor_seating": "yes", "name": "Crin", "outdoor_seating": "yes"}}, {"type": "node", "id": 2945792743, "lat": 40.4611902, "lon": -3.7000483, "tags": {"addr:city": "Madrid", "addr:housenumber": "22", "addr:postcode": "28039", "addr:street": "Calle del Cactus", "amenity": "bar", "name": "Mart\u00edn", "wheelchair": "no"}}, {"type": "node", "id": 2946232757, "lat": 40.4671072, "lon": -3.6943449, "tags": {"addr:city": "Madrid", "addr:housenumber": "1", "addr:postcode": "28029", "addr:street": "Calle del Delf\u00edn", "amenity": "bar", "name": "Doble V", "wheelchair": "no", "wheelchair:description:es": "Escal\u00f3n muy alto"}}, {"type": "node", "id": 2961951473, "lat": 40.4125806, "lon": -3.6955875}, {"type": "node", "id": 2961951474, "lat": 40.4125846, "lon": -3.6955922}, {"type": "node", "id": 2961951475, "lat": 40.4125969, "lon": -3.6954463}, {"type": "node", "id": 2961951486, "lat": 40.4126916, "lon": -3.6944885}, {"type": "node", "id": 2961951487, "lat": 40.4127036, "lon": -3.6945885}, {"type": "node", "id": 2961951490, "lat": 40.4127255, "lon": -3.6944795}, {"type": "node", "id": 2961951492, "lat": 40.4127302, "lon": -3.6945151}, {"type": "node", "id": 2961951496, "lat": 40.4127379, "lon": -3.6944762}, {"type": "node", "id": 2961951500, "lat": 40.4127456, "lon": -3.694513}, {"type": "node", "id": 2961951506, "lat": 40.4127761, "lon": -3.6944661}, {"type": "node", "id": 2969131853, "lat": 40.4758365, "lon": -3.7092236, "tags": {"amenity": "bar", "name": "La Cancha"}}, {"type": "node", "id": 2969139064, "lat": 40.4761017, "lon": -3.7079297, "tags": {"amenity": "bar", "name": "Las Vegas"}}, {"type": "node", "id": 2969142008, "lat": 40.4776173, "lon": -3.7026319, "tags": {"amenity": "bar", "name": "Pub El Tirol"}}, {"type": "node", "id": 2971949914, "lat": 40.4090817, "lon": -3.692505, "tags": {"addr:housenumber": "120", "addr:street": "Calle de Atocha", "amenity": "bar", "check_date": "2024-07-16", "indoor_seating": "yes", "name": "Bareto Atocha", "old_name": "Lizarr\u00e1n", "outdoor_seating": "sidewalk", "smoking": "outside", "website": "https://www.baretomadrid.com/espacios-2/#atocha"}}, {"type": "node", "id": 2978244553, "lat": 40.4642606, "lon": -3.709838, "tags": {"amenity": "bar", "name": "Bar Capri"}}, {"type": "node", "id": 3014676776, "lat": 40.4065217, "lon": -3.7061542, "tags": {"amenity": "bar", "name": "Gibraltar"}}, {"type": "node", "id": 3045505035, "lat": 40.4361586, "lon": -3.7109533, "tags": {"addr:city": "Madrid", "addr:country": "ES", "addr:district": "Chamber\u00ed", "addr:housenumber": "41", "addr:postcode": "28015", "addr:street": "Calle de Donoso Cort\u00e9s", "addr:subdistrict": "Arapiles", "amenity": "bar", "name": "Vita Bar"}}, {"type": "node", "id": 3046071470, "lat": 40.4227265, "lon": -3.6566857, "tags": {"amenity": "bar", "name": "Bar JyJ"}}, {"type": "node", "id": 3050304794, "lat": 40.4745272, "lon": -3.7187838, "tags": {"amenity": "bar", "name": "Hawaii"}}, {"type": "node", "id": 3051156933, "lat": 40.423683, "lon": -3.6048384, "tags": {"amenity": "bar", "name": "La Criba"}}, {"type": "node", "id": 3063837753, "lat": 40.4335946, "lon": -3.6481518, "tags": {"addr:city": "Madrid", "addr:housenumber": "337", "addr:place": "Calle de Alcal\u00e1", "addr:postcode": "28027", "amenity": "bar", "name": "Docamar", "note": "Patatas bravas", "opening_hours": "Mo-Su 12:00-24:00", "outdoor_seating": "yes", "phone": "+34 91 367 8317", "start_date": "1963", "website": "https://docamar.com", "website:menu": "https://salsadocamar.com/wp-content/uploads/2023/05/Cartadocamar-ESP.pdf", "wikidata": "Q57446851"}}, {"type": "node", "id": 3063837754, "lat": 40.4341519, "lon": -3.6474893, "tags": {"amenity": "bar", "check_date": "2023-06-22", "name": "El \u00c1guila de Gredos"}}, {"type": "node", "id": 3067686089, "lat": 40.4119165, "lon": -3.6995454}, {"type": "node", "id": 3068221417, "lat": 40.4591356, "lon": -3.6870559, "tags": {"amenity": "bar", "name": "Terraza Tochi"}}, {"type": "node", "id": 3076682054, "lat": 40.4204411, "lon": -3.6958646, "tags": {"addr:city": "Madrid", "addr:country": "ES", "addr:housenumber": "4", "addr:postcode": "28004", "addr:street": "Plaza del Rey", "addr:subdistrict": "Justicia", "amenity": "bar", "name": "Bar Sif\u00f3n", "website": "https://www.sifonmadrid.com/"}}, {"type": "node", "id": 3076682056, "lat": 40.420441, "lon": -3.6959227, "tags": {"addr:city": "Madrid", "addr:country": "ES", "addr:housenumber": "4", "addr:postcode": "28004", "addr:street": "Plaza del Rey", "addr:subdistrict": "Justicia", "amenity": "bar", "name": "Revoltosa", "website": "https://www.revoltosamadrid.com/"}}, {"type": "node", "id": 3094898221, "lat": 40.4351631, "lon": -3.6848307, "tags": {"addr:city": "Madrid", "addr:housenumber": "7", "addr:postcode": "28006", "addr:street": "Calle de Diego de Le\u00f3n", "amenity": "bar", "name": "El Cuento Bar", "phone": "+34 650 84 47 35", "website": "http://elcuentobar.es"}}, {"type": "node", "id": 3096035812, "lat": 40.3485982, "lon": -3.7133304, "tags": {"amenity": "bar", "name": "Vertical Bar de copas"}}, {"type": "node", "id": 3119334862, "lat": 40.4625994, "lon": -3.7017434, "tags": {"addr:city": "Madrid", "addr:housenumber": "34", "addr:postcode": "28039", "addr:street": "Calle del Marqu\u00e9s de Viana", "amenity": "bar", "name": "E\u00f1e + que una letra", "wheelchair": "no", "wheelchair:description": "Escalones. Terraza accesible"}}, {"type": "node", "id": 3124574960, "lat": 40.4632841, "lon": -3.6944375, "tags": {"addr:city": "Madrid", "addr:housenumber": "26", "addr:postcode": "28020", "addr:street": "Calle de Amalia", "amenity": "bar", "name": "Bar Gallego Loureiro", "source": "survey"}}, {"type": "node", "id": 3125759380, "lat": 40.3954285, "lon": -3.7684073, "tags": {"amenity": "bar", "name": "Cris", "smoking": "outside"}}, {"type": "node", "id": 3135450023, "lat": 40.4423864, "lon": -3.6822727, "tags": {"amenity": "bar", "name": "Veracruz"}}, {"type": "node", "id": 3135450028, "lat": 40.4463121, "lon": -3.6891717, "tags": {"amenity": "bar"}}, {"type": "node", "id": 3135960741, "lat": 40.4497412, "lon": -3.6902173, "tags": {"amenity": "bar", "name": "Vanila", "wheelchair": "limited"}}, {"type": "node", "id": 3145290173, "lat": 40.4651454, "lon": -3.7071272, "tags": {"addr:city": "Madrid", "addr:housenumber": "1", "addr:postcode": "28039", "addr:street": "Calle del Aligustre", "amenity": "bar", "name": "Vistabella", "wheelchair": "limited", "wheelchair:description": "Escal\u00f3n para ba\u00f1o y obst\u00e1culos."}}, {"type": "node", "id": 3157971326, "lat": 40.4251696, "lon": -3.6530335, "tags": {"amenity": "bar", "name": "Bar Dos Hermanos"}}, {"type": "node", "id": 3159083676, "lat": 40.4235369, "lon": -3.6509423, "tags": {"amenity": "bar", "name": "Los Chikis"}}, {"type": "node", "id": 3161051715, "lat": 40.3835334, "lon": -3.7198198}, {"type": "node", "id": 3161051716, "lat": 40.3835352, "lon": -3.7198807}, {"type": "node", "id": 3161051717, "lat": 40.383565, "lon": -3.7197751}, {"type": "node", "id": 3161051718, "lat": 40.3835692, "lon": -3.7199221}, {"type": "node", "id": 3161051720, "lat": 40.3836114, "lon": -3.7197728}, {"type": "node", "id": 3161051721, "lat": 40.3836156, "lon": -3.7199199}, {"type": "node", "id": 3161051722, "lat": 40.3836454, "lon": -3.7198143}, {"type": "node", "id": 3161051723, "lat": 40.3836472, "lon": -3.7198752}, {"type": "node", "id": 3161138703, "lat": 40.3867067, "lon": -3.72839, "tags": {"amenity": "bar", "name": "Trote bar de copas"}}, {"type": "node", "id": 3161160131, "lat": 40.460715, "lon": -3.6965167, "tags": {"amenity": "bar", "name": "Vi Ai Pi"}}, {"type": "node", "id": 3161265198, "lat": 40.4227197, "lon": -3.6984803, "tags": {"addr:city": "Madrid", "addr:country": "ES", "addr:housenumber": "24", "addr:postcode": "28004", "addr:street": "Calle de Pelayo", "addr:subdistrict": "Justicia", "amenity": "bar", "name": "Baco y Beto", "opening_hours": "Mo-Fr 20:00-01:00; Sa 14:00-16:30, 20:00-01:00", "wheelchair": "no"}}, {"type": "node", "id": 3172798059, "lat": 40.4300609, "lon": -3.6461956, "tags": {"amenity": "bar", "name": "Sidrer\u00eda El 3"}}, {"type": "node", "id": 3196265243, "lat": 40.4434177, "lon": -3.714034, "tags": {"amenity": "bar", "name": "La Bra\u00f1a"}}, {"type": "node", "id": 3196267992, "lat": 40.443697, "lon": -3.7145052, "tags": {"amenity": "bar", "name": "After Nine"}}, {"type": "node", "id": 3196394313, "lat": 40.4472638, "lon": -3.7107031, "tags": {"amenity": "bar"}}, {"type": "node", "id": 3203268984, "lat": 40.4300693, "lon": -3.6515139, "tags": {"amenity": "bar", "name": "Cervecer\u00eda Torrecilla"}}, {"type": "node", "id": 3206672288, "lat": 40.4222571, "lon": -3.7189077, "tags": {"addr:housenumber": "22", "addr:street": "Paseo del Rey", "amenity": "bar", "name": "Caf\u00e9 del Rey", "phone": "+34 918053931", "toilets:wheelchair": "no", "wheelchair": "limited"}}, {"type": "node", "id": 3206679166, "lat": 40.4354314, "lon": -3.6642229, "tags": {"addr:city": "Madrid", "addr:country": "ES", "addr:housenumber": "1", "addr:postcode": "28028", "addr:street": "Calle de Biarritz", "amenity": "bar", "name": "Cafeter\u00eda/Cervecer\u00eda Biarritz"}}, {"type": "node", "id": 3206737731, "lat": 40.4347923, "lon": -3.6647548, "tags": {"addr:city": "Madrid", "addr:country": "ES", "addr:housenumber": "11", "addr:postcode": "28028", "addr:street": "Calle de Colomer", "amenity": "bar", "name": "Bar Fiesta"}}, {"type": "node", "id": 3212683924, "lat": 40.4347025, "lon": -3.6820934, "tags": {"addr:city": "Madrid", "addr:housenumber": "97", "addr:postcode": "28006", "addr:street": "Calle de N\u00fa\u00f1ez de Balboa", "amenity": "bar", "contact:phone": "+34 915781590", "name": "Bar Cruz"}}, {"type": "node", "id": 3218087240, "lat": 40.4128269, "lon": -3.7136095, "tags": {"amenity": "bar", "name": "Bar Esperanza"}}, {"type": "node", "id": 3218093818, "lat": 40.4125003, "lon": -3.7124762, "tags": {"addr:city": "Madrid", "addr:housenumber": "7", "addr:postcode": "28005", "addr:street": "Calle de la Redondilla", "amenity": "bar", "contact:phone": "+34 810 52 47 25", "name": "Tacos & Tapas", "old_name": "Bar de Bor", "website": "https://www.tacosytapas.es/"}}, {"type": "node", "id": 3218100969, "lat": 40.4119249, "lon": -3.7106526, "tags": {"addr:city": "Madrid", "addr:housenumber": "4", "addr:postcode": "28005", "addr:street": "Plaza del Humilladero", "amenity": "bar", "contact:facebook": "https://es-es.facebook.com/LA-MAZETA-108337342520219/", "contact:phone": "+34 696 60 90 85", "name": "La Mazeta", "wheelchair": "no"}}, {"type": "node", "id": 3220340953, "lat": 40.4208512, "lon": -3.7047857, "tags": {"addr:housenumber": "5", "addr:street": "Calle de Concepci\u00f3n Arenal", "amenity": "bar", "check_date": "2023-10-04", "name": "Bar Esteban", "wheelchair": "no"}}, {"type": "node", "id": 3236026336, "lat": 40.4095776, "lon": -3.7081765, "tags": {"addr:city": "Madrid", "addr:housenumber": "11", "addr:postcode": "28005", "addr:street": "Plaza General Vara del Rey", "amenity": "bar", "name": "La Plaza", "wheelchair": "no", "wheelchair:description": "Escalon > 7cm"}}, {"type": "node", "id": 3236026340, "lat": 40.409597, "lon": -3.7087901, "tags": {"addr:city": "Madrid", "addr:housenumber": "10", "addr:postcode": "28005", "addr:street": "Calle de L\u00f3pez Silva", "amenity": "bar", "name": "Casa \u00c1lvarez", "wheelchair": "limited", "wheelchair:description": "Acceso ba\u00f1o dificil"}}, {"type": "node", "id": 3236026342, "lat": 40.4101682, "lon": -3.709072, "tags": {"addr:city": "Madrid", "addr:housenumber": "4", "addr:postcode": "28005", "addr:street": "Calle de L\u00f3pez Silva", "amenity": "bar", "contact:phone": "+34620581291", "name": "La Flamenca 3.0", "old_name": "La Flamenca", "wheelchair": "no"}}, {"type": "node", "id": 3237847435, "lat": 40.4194551, "lon": -3.7081087, "tags": {"addr:city": "Madrid", "addr:housenumber": "13", "addr:postcode": "28013", "addr:street": "Costanilla de los \u00c1ngeles", "amenity": "bar", "check_date": "2024-07-26", "contact:facebook": "https://es-es.facebook.com/pages/Click-Music-Bar/111400492260071", "name": "Click Music Bar"}}, {"type": "node", "id": 3237847438, "lat": 40.4216136, "lon": -3.7058658, "tags": {"addr:city": "Madrid", "addr:housenumber": "22", "addr:postcode": "28004", "addr:street": "Calle de Silva", "amenity": "bar", "name": "Jos\u00e9 Alfredo", "phone": "+34 915214960", "website": "http://josealfredobar.com/", "wheelchair": "yes", "wheelchair:description": "Escal\u00f3n de entrada de 5 cm, ancho de la puerta 98 cm", "wikidata": "Q57446575"}}, {"type": "node", "id": 3240923396, "lat": 40.4268274, "lon": -3.7085426, "tags": {"addr:city": "Madrid", "addr:housenumber": "66", "addr:postcode": "28015", "addr:street": "Calle de la Palma", "amenity": "bar", "contact:facebook": "https://www.facebook.com/javi4latas/info?tab=overview", "name": "4 Latas"}}, {"type": "node", "id": 3242030110, "lat": 40.4248827, "lon": -3.6956903, "tags": {"addr:city": "Madrid", "addr:country": "ES", "addr:housenumber": "21", "addr:postcode": "28004", "addr:street": "Calle de Fernando VI", "amenity": "bar", "name": "Bocadillo de Jam\u00f3n y Champ\u00e1n", "opening_hours": "Mo 19:30-24:00; Tu-Th 13:00-16:30,19:30-24:00; Fr,Sa 00:00-00:30,13:00-16:30,19:30-24:00; Su 00:00-00:30,13:00-16:30"}}, {"type": "node", "id": 3242331192, "lat": 40.4263253, "lon": -3.7042665, "tags": {"addr:city": "Madrid", "addr:housenumber": "33", "addr:postcode": "28004", "addr:street": "Calle de la Palma", "amenity": "bar", "contact:facebook": "https://www.facebook.com/calandria.bar33/info/?tab=overview", "contact:phone": "+34 910 26 83 67", "name": "Calandria", "old_name": "Caf\u00e9 Gaspar"}}, {"type": "node", "id": 3244468584, "lat": 40.4255968, "lon": -3.704958, "tags": {"addr:city": "Madrid", "addr:housenumber": "36", "addr:postcode": "28004", "addr:street": "Calle del Esp\u00edritu Santo", "amenity": "bar", "check_date": "2023-09-27", "name": "Cervecer\u00eda Cariz", "old_name": "Coco Bar", "wheelchair": "no"}}, {"type": "node", "id": 3244468586, "lat": 40.4256183, "lon": -3.705263, "tags": {"addr:city": "Madrid", "addr:housenumber": "40", "addr:postcode": "28004", "addr:street": "Calle del Esp\u00edritu Santo", "amenity": "bar", "contact:facebook": "https://www.facebook.com/la.prudencia.5/info?tab=overview", "name": "La Prudencia", "phone": "+34 915 22 30 97"}}, {"type": "node", "id": 3250056456, "lat": 40.4023749, "lon": -3.6766332, "tags": {"amenity": "bar", "name": "Bodegas Casas"}}, {"type": "node", "id": 3251419496, "lat": 40.408109, "lon": -3.6765785, "tags": {"amenity": "bar", "name": "Fogg Bar", "old_name": "La F\u00e1brica de la Yaya"}}, {"type": "node", "id": 3255244823, "lat": 40.4125276, "lon": -3.6939109}, {"type": "node", "id": 3255244825, "lat": 40.4125386, "lon": -3.6939075}, {"type": "node", "id": 3255244827, "lat": 40.4125473, "lon": -3.6938964}, {"type": "node", "id": 3255244828, "lat": 40.4125499, "lon": -3.69388}, {"type": "node", "id": 3256647864, "lat": 40.4568031, "lon": -3.6930058, "tags": {"amenity": "bar", "name": "Eco Charlie"}}, {"type": "node", "id": 3256665361, "lat": 40.4569868, "lon": -3.6928904, "tags": {"amenity": "bar", "name": "Buchanan's"}}, {"type": "node", "id": 3258049557, "lat": 40.4269157, "lon": -3.6990363, "tags": {"addr:housenumber": "6", "addr:street": "Calle de Barcel\u00f3", "amenity": "bar", "name": "Taberna de Barcel\u00f3", "wheelchair": "limited"}}, {"type": "node", "id": 3265474258, "lat": 40.4394483, "lon": -3.6734839, "tags": {"amenity": "bar", "name": "Moar\u00e1n"}}, {"type": "node", "id": 3269709361, "lat": 40.3960211, "lon": -3.7159308, "tags": {"amenity": "bar", "name": "Bar-restaurante Astur"}}, {"type": "node", "id": 3282041399, "lat": 40.4194231, "lon": -3.6283293, "tags": {"amenity": "bar", "name": "Bar Los Hermanos"}}, {"type": "node", "id": 3298319226, "lat": 40.4276152, "lon": -3.6338807, "tags": {"amenity": "bar", "name": "Bar Mar Rojo"}}, {"type": "node", "id": 3308435265, "lat": 40.4381823, "lon": -3.7140607, "tags": {"addr:housenumber": "84", "addr:street": "Calle de Andr\u00e9s Mellado", "amenity": "bar", "check_date": "2024-02-16", "name": "La Mu\u00f1a", "old_name": "Cervecer\u00eda La Fragua", "wheelchair": "limited"}}, {"type": "node", "id": 3308435266, "lat": 40.43845, "lon": -3.7142405, "tags": {"addr:housenumber": "69", "addr:street": "Calle de Andr\u00e9s Mellado", "amenity": "bar", "check_date": "2024-04-10", "name": "El Barril de Arg\u00fcelles", "wheelchair": "limited"}}, {"type": "node", "id": 3314970278, "lat": 40.4020584, "lon": -3.7536729, "tags": {"amenity": "bar", "name": "Silbra", "opening_hours": "22:00-04:00"}}, {"type": "node", "id": 3314970761, "lat": 40.4021234, "lon": -3.7536358, "tags": {"amenity": "bar", "name": "Cocodrilo", "opening_hours": "22:00-04:00"}}, {"type": "node", "id": 3339829816, "lat": 40.3601359, "lon": -3.6945849, "tags": {"amenity": "bar", "name": "Pema"}}, {"type": "node", "id": 3345686922, "lat": 40.4216907, "lon": -3.699188, "tags": {"addr:city": "Madrid", "addr:country": "ES", "addr:postcode": "28004", "addr:street": "Calle de Pelayo", "addr:subdistrict": "Justicia", "amenity": "bar", "name": "Pepito Grillo"}}, {"type": "node", "id": 3353773648, "lat": 40.4197751, "lon": -3.7069085, "tags": {"addr:city": "Madrid", "addr:housenumber": "38", "addr:postcode": "28013", "addr:street": "Calle Preciados", "amenity": "bar", "name": "Preciados 38"}}, {"type": "node", "id": 3355807647, "lat": 40.4220069, "lon": -3.709526, "tags": {"amenity": "bar", "name": "Leonesa"}}, {"type": "node", "id": 3357952294, "lat": 40.4261217, "lon": -3.7112841, "tags": {"addr:city": "Madrid", "addr:housenumber": "10", "addr:postcode": "28015", "addr:street": "Calle del Conde Duque", "amenity": "bar", "contact:facebook": "https://www.facebook.com/pages/El-Caf%C3%A9-sin-Nombre/176860492344130?sk=info&tab=overview", "indoor_seating": "yes", "name": "El Caf\u00e9 Sin Nombre", "outdoor_seating": "no", "phone": "+34 915 59 18 94"}}, {"type": "node", "id": 3357952296, "lat": 40.4264139, "lon": -3.7110375, "tags": {"addr:city": "Madrid", "addr:housenumber": "14", "addr:postcode": "28015", "addr:street": "Calle del Conde Duque", "amenity": "bar", "name": "El 14", "wheelchair": "no"}}, {"type": "node", "id": 3359348284, "lat": 40.4262894, "lon": -3.7105415, "tags": {"addr:city": "Madrid", "addr:housenumber": "12", "addr:postcode": "28015", "addr:street": "Calle del Lim\u00f3n", "amenity": "bar", "name": "Black and Yellow"}}, {"type": "node", "id": 3359367684, "lat": 40.4292232, "lon": -3.7079155, "tags": {"addr:city": "Madrid", "addr:postcode": "28015", "addr:street": "Calle del Acuerdo", "amenity": "bar", "name": "Los Claveles"}}, {"type": "node", "id": 3359367685, "lat": 40.4287851, "lon": -3.707997, "tags": {"addr:city": "Madrid", "addr:housenumber": "31", "addr:postcode": "28015", "addr:street": "Calle del Acuerdo", "amenity": "bar", "contact:facebook": "https://es-la.facebook.com/pages/La-Parada/170622372970167", "name": "La Parada", "phone": "+34 914 48 20 08"}}, {"type": "node", "id": 3359367687, "lat": 40.4289362, "lon": -3.7077422, "tags": {"addr:city": "Madrid", "addr:housenumber": "36", "addr:postcode": "28015", "addr:street": "Calle del Acuerdo", "amenity": "bar", "contact:facebook": "https://es-es.facebook.com/TabernaAcuerdoII", "name": "Taberna Acuerdo"}}, {"type": "node", "id": 3361315180, "lat": 40.420315, "lon": -3.698182, "tags": {"addr:city": "Madrid", "addr:country": "ES", "addr:housenumber": "19", "addr:postcode": "28004", "addr:street": "Calle de las Infantas", "addr:subdistrict": "Justicia", "amenity": "bar", "contact:facebook": "https://www.facebook.com/pages/Pouss/177883762243220", "name": "Pouss"}}, {"type": "node", "id": 3361315183, "lat": 40.424171, "lon": -3.6951449, "tags": {"addr:city": "Madrid", "addr:country": "ES", "addr:postcode": "28004", "addr:street": "Calle de Fernando VI", "addr:subdistrict": "Justicia", "amenity": "bar", "name": "Cervecer\u00eda D\u00e1vila"}},